{
"type": "FeatureCollection",
"name": "hollywood_data",
"crs": { "type": "name", "properties": { "name": "urn:ogc:def:crs:OGC:1.3:CRS84" } },
"features": [
{ "type": "Feature", "properties": { "request_type": "Flooding Issues", "Latitude": 26.0182665, "Longitude": -80.1757121, "Address": "Johnson S/N Park R, Hollywood, FL 33021", "AdditionalData": "Select a Request Type=Flooding Issues", "StatusType": "Received", "InitialBoundaryName": "Hollywood, FL - City Limits;District 3;Code Enforcement Zone 8", "date": "2024-05-02 20:11:13" }, "geometry": { "type": "Point", "coordinates": [ -80.1757121, 26.0182665 ] } },
{ "type": "Feature", "properties": { "request_type": "Flooding Issues", "Latitude": 26.015938, "Longitude": -80.1634569, "Address": "2807 Pierce St, Hollywood, FL 33020", "AdditionalData": "Select a Request Type=Flooding Issues", "StatusType": "Received", "InitialBoundaryName": "Hollywood, FL - City Limits;District 3;Code Enforcement Zone 7", "date": "2024-05-02 15:17:18" }, "geometry": { "type": "Point", "coordinates": [ -80.1634569, 26.015938 ] } },
{ "type": "Feature", "properties": { "request_type": "Flooding Issues", "Latitude": 26.0184217, "Longitude": -80.1634725, "Address": "2746 Johnson St, Hollywood, FL 33020", "AdditionalData": "Select a Request Type=Flooding Issues", "StatusType": "Completed", "InitialBoundaryName": "Hollywood, FL - City Limits;District 3;Code Enforcement Zone 7", "date": "2024-05-01 9:48:57" }, "geometry": { "type": "Point", "coordinates": [ -80.1634725, 26.0184217 ] } },
{ "type": "Feature", "properties": { "request_type": "Flooding Issues", "Latitude": 26.002523, "Longitude": -80.1871532, "Address": "1600 Tallwood Ave, Hollywood, FL 33021", "AdditionalData": "Select a Request Type=Flooding Issues", "StatusType": "Completed", "InitialBoundaryName": "Hollywood, FL - City Limits;District 6;Code Enforcement Zone 9", "date": "2024-04-17 17:24:07" }, "geometry": { "type": "Point", "coordinates": [ -80.1871532, 26.002523 ] } },
{ "type": "Feature", "properties": { "request_type": "Flooding Issues", "Latitude": 26.0301109, "Longitude": -80.1350128, "Address": "2125 N 14th Ave, Hollywood, FL 33020", "AdditionalData": "Select a Request Type=Flooding Issues", "StatusType": "Completed", "InitialBoundaryName": "Hollywood, FL - City Limits;District 1;Code Enforcement Zone 1", "date": "2024-03-26 14:11:11" }, "geometry": { "type": "Point", "coordinates": [ -80.1350128, 26.0301109 ] } },
{ "type": "Feature", "properties": { "request_type": "Flooding Issues", "Latitude": 26.0223731, "Longitude": -80.1323279, "Address": "1237 Garfield St, Hollywood, FL 33019", "AdditionalData": "Select a Request Type=Flooding Issues", "StatusType": "Completed", "InitialBoundaryName": "Hollywood, FL - City Limits;District 1;Code Enforcement Zone 1", "date": "2024-03-25 10:20:16" }, "geometry": { "type": "Point", "coordinates": [ -80.1323279, 26.0223731 ] } },
{ "type": "Feature", "properties": { "request_type": "Flooding Issues", "Latitude": 26.0184436, "Longitude": -80.1660685, "Address": "812 N 29th Ave, Hollywood, FL 33020", "AdditionalData": "Select a Request Type=Flooding Issues", "StatusType": "Duplicate", "InitialBoundaryName": "Hollywood, FL - City Limits;District 3;Code Enforcement Zone 7", "date": "2024-03-25 6:52:31" }, "geometry": { "type": "Point", "coordinates": [ -80.1660685, 26.0184436 ] } },
{ "type": "Feature", "properties": { "request_type": "Flooding Issues", "Latitude": 26.0175998, "Longitude": -80.16621, "Address": "804 N 29th Ave, Hollywood, FL 33020", "AdditionalData": "Select a Request Type=Flooding Issues", "StatusType": "Completed", "InitialBoundaryName": "Hollywood, FL - City Limits;District 3;Code Enforcement Zone 7", "date": "2024-03-21 17:05:24" }, "geometry": { "type": "Point", "coordinates": [ -80.16621, 26.0175998 ] } },
{ "type": "Feature", "properties": { "request_type": "Flooding Issues", "Latitude": 26.0256526, "Longitude": -80.1575447, "Address": "1630 N 25th Ave, Hollywood, FL 33020", "AdditionalData": "Select a Request Type=Flooding Issues", "StatusType": "Completed", "InitialBoundaryName": "Hollywood, FL - City Limits;District 3;Code Enforcement Zone 7", "date": "2024-03-18 13:07:11" }, "geometry": { "type": "Point", "coordinates": [ -80.1575447, 26.0256526 ] } },
{ "type": "Feature", "properties": { "request_type": "Flooding Issues", "Latitude": 26.029352, "Longitude": -80.1552249, "Address": "2346 Scott St, Hollywood, FL 33020", "AdditionalData": "Select a Request Type=Flooding Issues", "StatusType": "Completed", "InitialBoundaryName": "Hollywood, FL - City Limits;District 2;Code Enforcement Zone 3", "date": "2024-03-04 12:17:48" }, "geometry": { "type": "Point", "coordinates": [ -80.1552249, 26.029352 ] } },
{ "type": "Feature", "properties": { "request_type": "Flooding Issues", "Latitude": 26.0081177, "Longitude": -80.1324909, "Address": "1253 Monroe St, Hollywood, FL 33019", "AdditionalData": "Select a Request Type=Flooding Issues", "StatusType": "Completed", "InitialBoundaryName": "Hollywood, FL - City Limits;District 1;Code Enforcement Zone 2", "date": "2024-02-27 13:25:56" }, "geometry": { "type": "Point", "coordinates": [ -80.1324909, 26.0081177 ] } },
{ "type": "Feature", "properties": { "request_type": "Flooding Issues", "Latitude": 26.0104979, "Longitude": -80.1218997, "Address": "817 N Southlake Dr, Hollywood, FL 33019", "AdditionalData": "Select a Request Type=Flooding Issues", "StatusType": "Received", "InitialBoundaryName": "Hollywood, FL - City Limits;District 1;Code Enforcement Zone 2", "date": "2024-02-20 17:15:56" }, "geometry": { "type": "Point", "coordinates": [ -80.1218997, 26.0104979 ] } },
{ "type": "Feature", "properties": { "request_type": "Flooding Issues", "Latitude": 26.0177712, "Longitude": -80.1263274, "Address": "1015 Buchanan St, Hollywood, FL 33019", "AdditionalData": "Select a Request Type=Flooding Issues", "StatusType": "Completed", "InitialBoundaryName": "Hollywood, FL - City Limits;District 1;Code Enforcement Zone 1", "date": "2024-02-19 8:58:49" }, "geometry": { "type": "Point", "coordinates": [ -80.1263274, 26.0177712 ] } },
{ "type": "Feature", "properties": { "request_type": "Flooding Issues", "Latitude": 26.0133583, "Longitude": -80.1603236, "Address": "2626 Taylor St, Hollywood, FL 33020", "AdditionalData": "Select a Request Type=Flooding Issues", "StatusType": "Completed", "InitialBoundaryName": "Hollywood, FL - City Limits;District 3;Code Enforcement Zone 7", "date": "2024-02-05 11:13:33" }, "geometry": { "type": "Point", "coordinates": [ -80.1603236, 26.0133583 ] } },
{ "type": "Feature", "properties": { "request_type": "Flooding Issues", "Latitude": 26.0318208, "Longitude": -80.1349511, "Address": "1401 Liberty St, Hollywood, FL 33020", "AdditionalData": "Select a Request Type=Flooding Issues", "StatusType": "Completed", "InitialBoundaryName": "Hollywood, FL - City Limits;District 1;Code Enforcement Zone 1", "date": "2024-02-01 14:19:03" }, "geometry": { "type": "Point", "coordinates": [ -80.1349511, 26.0318208 ] } },
{ "type": "Feature", "properties": { "request_type": "Flooding Issues", "Latitude": 26.0075749, "Longitude": -80.1445293, "Address": "1850 Monroe St, Hollywood, FL 33020", "AdditionalData": "Select a Request Type=Flooding Issues", "StatusType": "Completed", "InitialBoundaryName": "Hollywood, FL - City Limits;District 2;Code Enforcement Zone 204", "date": "2024-01-30 18:42:27" }, "geometry": { "type": "Point", "coordinates": [ -80.1445293, 26.0075749 ] } },
{ "type": "Feature", "properties": { "request_type": "Flooding Issues", "Latitude": 26.0530428, "Longitude": -80.1876373, "Address": "5630 Oak Tree Ave, Fort Lauderdale, FL 33312", "AdditionalData": "Select a Request Type=Flooding Issues", "StatusType": "Completed", "InitialBoundaryName": "Hollywood, FL - City Limits;District 4;Code Enforcement Zone 5", "date": "2024-01-11 14:16:19" }, "geometry": { "type": "Point", "coordinates": [ -80.1876373, 26.0530428 ] } },
{ "type": "Feature", "properties": { "request_type": "Flooding Issues", "Latitude": 26.0051729, "Longitude": -80.2117284, "Address": "600 S 62nd Ave, Hollywood, FL 33023", "AdditionalData": "Select a Request Type=Flooding Issues", "StatusType": "Completed", "InitialBoundaryName": "Hollywood, FL - City Limits;District 6;Code Enforcement Zone 10", "date": "2023-12-28 14:56:54" }, "geometry": { "type": "Point", "coordinates": [ -80.2117284, 26.0051729 ] } },
{ "type": "Feature", "properties": { "request_type": "Flooding Issues", "Latitude": 26.0219444, "Longitude": -80.1342007, "Address": "1125 N 13th Terrace, Hollywood, FL 33019", "AdditionalData": "Select a Request Type=Flooding Issues", "StatusType": "Completed", "InitialBoundaryName": "Hollywood, FL - City Limits;District 1;Code Enforcement Zone 1", "date": "2023-12-19 9:26:11" }, "geometry": { "type": "Point", "coordinates": [ -80.1342007, 26.0219444 ] } },
{ "type": "Feature", "properties": { "request_type": "Flooding Issues", "Latitude": 26.0304711, "Longitude": -80.134994, "Address": "2106 N 14th Ave, Hollywood, FL 33020", "AdditionalData": "Select a Request Type=Flooding Issues", "StatusType": "Completed", "InitialBoundaryName": "Hollywood, FL - City Limits;District 1;Code Enforcement Zone 1", "date": "2023-12-18 16:27:40" }, "geometry": { "type": "Point", "coordinates": [ -80.134994, 26.0304711 ] } },
{ "type": "Feature", "properties": { "request_type": "Flooding Issues", "Latitude": 26.0247594, "Longitude": -80.1365968, "Address": "1408 S Gabriel St, Hollywood, FL 33020", "AdditionalData": "Select a Request Type=Flooding Issues", "StatusType": "Completed", "InitialBoundaryName": "Hollywood, FL - City Limits;District 1;Code Enforcement Zone 1", "date": "2023-12-06 12:32:09" }, "geometry": { "type": "Point", "coordinates": [ -80.1365968, 26.0247594 ] } },
{ "type": "Feature", "properties": { "request_type": "Flooding Issues", "Latitude": 26.0063037, "Longitude": -80.1300982, "Address": "1200 Jefferson St, Hollywood, FL 33019", "AdditionalData": "Select a Request Type=Flooding Issues", "StatusType": "Completed", "InitialBoundaryName": "Hollywood, FL - City Limits;District 1;Code Enforcement Zone 2", "date": "2023-11-29 17:09:30" }, "geometry": { "type": "Point", "coordinates": [ -80.1300982, 26.0063037 ] } },
{ "type": "Feature", "properties": { "request_type": "Flooding Issues", "Latitude": 26.0059081, "Longitude": -80.1816813, "Address": "541 S Rainbow Dr, Hollywood, FL 33021", "AdditionalData": "Select a Request Type=Flooding Issues", "StatusType": "Completed", "InitialBoundaryName": "Hollywood, FL - City Limits;District 6;Code Enforcement Zone 9", "date": "2023-11-29 8:36:36" }, "geometry": { "type": "Point", "coordinates": [ -80.1816813, 26.0059081 ] } },
{ "type": "Feature", "properties": { "request_type": "Flooding Issues", "Latitude": 26.0173439, "Longitude": -80.1266946, "Address": "1028 Buchanan St, Hollywood, FL 33019", "AdditionalData": "Select a Request Type=Flooding Issues", "StatusType": "Completed", "InitialBoundaryName": "Hollywood, FL - City Limits;District 1;Code Enforcement Zone 1", "date": "2023-11-28 23:42:38" }, "geometry": { "type": "Point", "coordinates": [ -80.1266946, 26.0173439 ] } },
{ "type": "Feature", "properties": { "request_type": "Flooding Issues", "Latitude": 26.0314859, "Longitude": -80.1574407, "Address": "2230 N 25th Ave, Hollywood, FL 33020", "AdditionalData": "Select a Request Type=Flooding Issues", "StatusType": "Completed", "InitialBoundaryName": "Hollywood, FL - City Limits;District 3;Code Enforcement Zone 7", "date": "2023-11-16 9:45:13" }, "geometry": { "type": "Point", "coordinates": [ -80.1574407, 26.0314859 ] } },
{ "type": "Feature", "properties": { "request_type": "Flooding Issues", "Latitude": 26.0397716, "Longitude": -80.221145, "Address": "3331 N 66th Ave, Hollywood, FL 33024", "AdditionalData": "Select a Request Type=Flooding Issues", "StatusType": "Completed", "InitialBoundaryName": "Hollywood, FL - City Limits;District 4;Code Enforcement Zone 6", "date": "2023-11-16 9:02:45" }, "geometry": { "type": "Point", "coordinates": [ -80.221145, 26.0397716 ] } },
{ "type": "Feature", "properties": { "request_type": "Flooding Issues", "Latitude": 25.996937, "Longitude": -80.1366239, "Address": "Moffett St & NE 12th Ave, Hollywood, FL 33020", "AdditionalData": "Select a Request Type=Flooding Issues", "StatusType": "Completed", "InitialBoundaryName": "Hollywood, FL - City Limits;District 1;Code Enforcement Zone 2", "date": "2023-11-15 9:29:46" }, "geometry": { "type": "Point", "coordinates": [ -80.1366239, 25.996937 ] } },
{ "type": "Feature", "properties": { "request_type": "Flooding Issues", "Latitude": 26.0222612, "Longitude": -80.1318235, "Address": "1200 Arthur St, Hollywood, FL 33019", "AdditionalData": "Select a Request Type=Flooding Issues", "StatusType": "Completed", "InitialBoundaryName": "Hollywood, FL - City Limits;District 1;Code Enforcement Zone 1", "date": "2023-11-14 20:15:56" }, "geometry": { "type": "Point", "coordinates": [ -80.1318235, 26.0222612 ] } },
{ "type": "Feature", "properties": { "request_type": "Flooding Issues", "Latitude": 26.0284331, "Longitude": -80.1652193, "Address": "1918 N 28th Ave, Hollywood, FL 33020", "AdditionalData": "Select a Request Type=Flooding Issues", "StatusType": "Completed", "InitialBoundaryName": "Hollywood, FL - City Limits;District 3;Code Enforcement Zone 7", "date": "2023-11-14 14:44:56" }, "geometry": { "type": "Point", "coordinates": [ -80.1652193, 26.0284331 ] } },
{ "type": "Feature", "properties": { "request_type": "Flooding Issues", "Latitude": 25.999562, "Longitude": -80.1350362, "Address": "1406 Wiley St, Hollywood, FL 33020", "AdditionalData": "Select a Request Type=Flooding Issues", "StatusType": "Completed", "InitialBoundaryName": "Hollywood, FL - City Limits;District 1;Code Enforcement Zone 2", "date": "2023-11-14 12:47:28" }, "geometry": { "type": "Point", "coordinates": [ -80.1350362, 25.999562 ] } },
{ "type": "Feature", "properties": { "request_type": "Flooding Issues", "Latitude": 26.0187149, "Longitude": -80.174937, "Address": "3251 Johnson St, Hollywood, FL 33021", "AdditionalData": "Select a Request Type=Flooding Issues", "StatusType": "Completed", "InitialBoundaryName": "Hollywood, FL - City Limits;District 3;Code Enforcement Zone 7", "date": "2023-11-13 15:51:20" }, "geometry": { "type": "Point", "coordinates": [ -80.174937, 26.0187149 ] } },
{ "type": "Feature", "properties": { "request_type": "Flooding Issues", "Latitude": 26.0107896, "Longitude": -80.1613592, "Address": "2660 Hollywood Blvd, Hollywood, FL 33020", "AdditionalData": "Select a Request Type=Flooding Issues", "StatusType": "Completed", "InitialBoundaryName": "Hollywood, FL - City Limits;District 2;Code Enforcement Zone 4", "date": "2023-11-03 8:26:52" }, "geometry": { "type": "Point", "coordinates": [ -80.1613592, 26.0107896 ] } },
{ "type": "Feature", "properties": { "request_type": "Flooding Issues", "Latitude": 26.0294586, "Longitude": -80.1353193, "Address": "1401 Coolidge St, Hollywood, FL 33020", "AdditionalData": "Select a Request Type=Flooding Issues", "StatusType": "Completed", "InitialBoundaryName": "Hollywood, FL - City Limits;District 1;Code Enforcement Zone 1", "date": "2023-10-30 9:45:33" }, "geometry": { "type": "Point", "coordinates": [ -80.1353193, 26.0294586 ] } },
{ "type": "Feature", "properties": { "request_type": "Flooding Issues", "Latitude": 26.0145917, "Longitude": -80.2104491, "Address": "6111 Eaton St, Hollywood, FL 33024", "AdditionalData": "Select a Request Type=Flooding Issues", "StatusType": "Completed", "InitialBoundaryName": "Hollywood, FL - City Limits;District 6;Code Enforcement Zone 10", "date": "2023-10-25 12:54:42" }, "geometry": { "type": "Point", "coordinates": [ -80.2104491, 26.0145917 ] } },
{ "type": "Feature", "properties": { "request_type": "Flooding Issues", "Latitude": 26.0245358, "Longitude": -80.1655653, "Address": "1606 N 29th Ave, Hollywood, FL 33020", "AdditionalData": "Select a Request Type=Flooding Issues", "StatusType": "Completed", "InitialBoundaryName": "Hollywood, FL - City Limits;District 3;Code Enforcement Zone 7", "date": "2023-10-23 19:08:40" }, "geometry": { "type": "Point", "coordinates": [ -80.1655653, 26.0245358 ] } },
{ "type": "Feature", "properties": { "request_type": "Flooding Issues", "Latitude": 26.029696, "Longitude": -80.1350584, "Address": "1400 Scott St, Hollywood, FL 33020", "AdditionalData": "Select a Request Type=Flooding Issues", "StatusType": "Completed", "InitialBoundaryName": "Hollywood, FL - City Limits;District 1;Code Enforcement Zone 1", "date": "2023-10-16 7:43:35" }, "geometry": { "type": "Point", "coordinates": [ -80.1350584, 26.029696 ] } },
{ "type": "Feature", "properties": { "request_type": "Flooding Issues", "Latitude": 26.023887, "Longitude": -80.1393381, "Address": "1400 N 16th Ave, Hollywood, FL 33020", "AdditionalData": "Select a Request Type=Flooding Issues", "StatusType": "Completed", "InitialBoundaryName": "Hollywood, FL - City Limits;District 1;Code Enforcement Zone 1", "date": "2023-10-11 13:56:40" }, "geometry": { "type": "Point", "coordinates": [ -80.1393381, 26.023887 ] } },
{ "type": "Feature", "properties": { "request_type": "Flooding Issues", "Latitude": 26.0186535, "Longitude": -80.1748021, "Address": "3247 Johnson St, Hollywood, FL 33021", "AdditionalData": "Select a Request Type=Flooding Issues", "StatusType": "Completed", "InitialBoundaryName": "Hollywood, FL - City Limits;District 3;Code Enforcement Zone 7", "date": "2023-10-02 14:27:58" }, "geometry": { "type": "Point", "coordinates": [ -80.1748021, 26.0186535 ] } },
{ "type": "Feature", "properties": { "request_type": "Flooding Issues", "Latitude": 26.0162048, "Longitude": -80.1658612, "Address": "2905 Pierce St, Hollywood, FL 33020", "AdditionalData": "Select a Request Type=Flooding Issues", "StatusType": "Completed", "InitialBoundaryName": "Hollywood, FL - City Limits;District 3;Code Enforcement Zone 7", "date": "2023-10-02 12:21:43" }, "geometry": { "type": "Point", "coordinates": [ -80.1658612, 26.0162048 ] } },
{ "type": "Feature", "properties": { "request_type": "Flooding Issues", "Latitude": 26.0301109, "Longitude": -80.1350128, "Address": "2125 N 14th Ave, Hollywood, FL 33020", "AdditionalData": "Select a Request Type=Flooding Issues", "StatusType": "Completed", "InitialBoundaryName": "Hollywood, FL - City Limits;District 1;Code Enforcement Zone 1", "date": "2023-10-02 9:20:39" }, "geometry": { "type": "Point", "coordinates": [ -80.1350128, 26.0301109 ] } },
{ "type": "Feature", "properties": { "request_type": "Flooding Issues", "Latitude": 26.0111618, "Longitude": -80.1307466, "Address": "1209 Harrison St, Hollywood, FL 33019", "AdditionalData": "Select a Request Type=Flooding Issues", "StatusType": "Completed", "InitialBoundaryName": "Hollywood, FL - City Limits;District 1;Code Enforcement Zone 2", "date": "2023-10-01 11:09:53" }, "geometry": { "type": "Point", "coordinates": [ -80.1307466, 26.0111618 ] } },
{ "type": "Feature", "properties": { "request_type": "Flooding Issues", "Latitude": 26.0159292, "Longitude": -80.165978, "Address": "2915 Pierce St, Hollywood, FL 33020", "AdditionalData": "Select a Request Type=Flooding Issues", "StatusType": "Completed", "InitialBoundaryName": "Hollywood, FL - City Limits;District 3;Code Enforcement Zone 7", "date": "2023-09-27 11:12:04" }, "geometry": { "type": "Point", "coordinates": [ -80.165978, 26.0159292 ] } },
{ "type": "Feature", "properties": { "request_type": "Flooding Issues", "Latitude": 26.0285102, "Longitude": -80.1649672, "Address": "1922 N 28th Ave, Hollywood, FL 33020", "AdditionalData": "Select a Request Type=Flooding Issues", "StatusType": "Completed", "InitialBoundaryName": "Hollywood, FL - City Limits;District 3;Code Enforcement Zone 7", "date": "2023-09-27 10:53:43" }, "geometry": { "type": "Point", "coordinates": [ -80.1649672, 26.0285102 ] } },
{ "type": "Feature", "properties": { "request_type": "Flooding Issues", "Latitude": 26.0055436, "Longitude": -80.1536519, "Address": "2331 Adams St, Hollywood, FL 33020", "AdditionalData": "Select a Request Type=Flooding Issues", "StatusType": "Completed", "InitialBoundaryName": "Hollywood, FL - City Limits;District 2;Code Enforcement Zone 204", "date": "2023-09-27 8:40:19" }, "geometry": { "type": "Point", "coordinates": [ -80.1536519, 26.0055436 ] } },
{ "type": "Feature", "properties": { "request_type": "Flooding Issues", "Latitude": 26.0205683, "Longitude": -80.238688, "Address": "7509 Arthur St, Hollywood, FL 33024", "AdditionalData": "Select a Request Type=Flooding Issues", "StatusType": "Completed", "InitialBoundaryName": "Hollywood, FL - City Limits;District 5;Code Enforcement Zone 11", "date": "2023-09-24 7:31:09" }, "geometry": { "type": "Point", "coordinates": [ -80.238688, 26.0205683 ] } },
{ "type": "Feature", "properties": { "request_type": "Flooding Issues", "Latitude": 26.0172854, "Longitude": -80.2152473, "Address": "6320 Johnson St suite c, Hollywood, FL 33024", "AdditionalData": "Select a Request Type=Flooding Issues", "StatusType": "Completed", "InitialBoundaryName": "Hollywood, FL - City Limits;District 5;Code Enforcement Zone 11", "date": "2023-09-05 23:18:09" }, "geometry": { "type": "Point", "coordinates": [ -80.2152473, 26.0172854 ] } },
{ "type": "Feature", "properties": { "request_type": "Flooding Issues", "Latitude": 26.011072, "Longitude": -80.1470842, "Address": "2000 Hollywood Blvd, Hollywood, FL 33020", "AdditionalData": "Select a Request Type=Flooding Issues", "StatusType": "Completed", "InitialBoundaryName": "Hollywood, FL - City Limits;District 2;Code Enforcement Zone 204", "date": "2023-08-30 9:46:25" }, "geometry": { "type": "Point", "coordinates": [ -80.1470842, 26.011072 ] } },
{ "type": "Feature", "properties": { "request_type": "Flooding Issues", "Latitude": 26.0425307, "Longitude": -80.1769134, "Address": "3541 N 33rd Terrace, Hollywood, FL 33021", "AdditionalData": "Select a Request Type=Flooding Issues", "StatusType": "Completed", "InitialBoundaryName": "Hollywood, FL - City Limits;District 4;Code Enforcement Zone 5", "date": "2023-08-28 12:43:10" }, "geometry": { "type": "Point", "coordinates": [ -80.1769134, 26.0425307 ] } },
{ "type": "Feature", "properties": { "request_type": "Flooding Issues", "Latitude": 26.010322, "Longitude": -80.162431, "Address": "2724-2736 Hollywood Blvd, Hollywood, FL 33020", "AdditionalData": "Select a Request Type=Flooding Issues", "StatusType": "Completed", "InitialBoundaryName": "Hollywood, FL - City Limits;District 2;Code Enforcement Zone 4", "date": "2023-08-28 7:26:30" }, "geometry": { "type": "Point", "coordinates": [ -80.162431, 26.010322 ] } },
{ "type": "Feature", "properties": { "request_type": "Flooding Issues", "Latitude": 26.0225669, "Longitude": -80.1365922, "Address": "1430 Arthur St, Hollywood, FL 33020", "AdditionalData": "Select a Request Type=Flooding Issues", "StatusType": "Completed", "InitialBoundaryName": "Hollywood, FL - City Limits;District 1;Code Enforcement Zone 1", "date": "2023-08-23 13:15:54" }, "geometry": { "type": "Point", "coordinates": [ -80.1365922, 26.0225669 ] } },
{ "type": "Feature", "properties": { "request_type": "Flooding Issues", "Latitude": 26.0341152, "Longitude": -80.190239, "Address": "2307 St Andrews Rd, Hollywood, FL 33021", "AdditionalData": "Select a Request Type=Flooding Issues", "StatusType": "Completed", "InitialBoundaryName": "Hollywood, FL - City Limits;District 4;Code Enforcement Zone 5", "date": "2023-08-21 7:42:35" }, "geometry": { "type": "Point", "coordinates": [ -80.190239, 26.0341152 ] } },
{ "type": "Feature", "properties": { "request_type": "Flooding Issues", "Latitude": 26.0113275, "Longitude": -80.1469833, "Address": "1948 FL-820, Hollywood, FL 33020", "AdditionalData": "Select a Request Type=Flooding Issues", "StatusType": "Completed", "InitialBoundaryName": "Hollywood, FL - City Limits;District 2;Code Enforcement Zone 204", "date": "2023-08-17 16:51:03" }, "geometry": { "type": "Point", "coordinates": [ -80.1469833, 26.0113275 ] } },
{ "type": "Feature", "properties": { "request_type": "Flooding Issues", "Latitude": 26.0172203, "Longitude": -80.2157977, "Address": "6390 Johnson St, Hollywood, FL 33024", "AdditionalData": "Select a Request Type=Flooding Issues", "StatusType": "Completed", "InitialBoundaryName": "Hollywood, FL - City Limits;District 5;Code Enforcement Zone 11", "date": "2023-08-14 22:53:39" }, "geometry": { "type": "Point", "coordinates": [ -80.2157977, 26.0172203 ] } },
{ "type": "Feature", "properties": { "request_type": "Flooding Issues", "Latitude": 26.0195056, "Longitude": -80.1338165, "Address": "906 N 13th Terrace, Hollywood, FL 33019", "AdditionalData": "Select a Request Type=Flooding Issues", "StatusType": "Completed", "InitialBoundaryName": "Hollywood, FL - City Limits;District 1;Code Enforcement Zone 1", "date": "2023-08-09 17:22:51" }, "geometry": { "type": "Point", "coordinates": [ -80.1338165, 26.0195056 ] } },
{ "type": "Feature", "properties": { "request_type": "Flooding Issues", "Latitude": 26.0248957, "Longitude": -80.1571947, "Address": "2444 Roosevelt St, Hollywood, FL 33020", "AdditionalData": "Select a Request Type=Flooding Issues", "StatusType": "Completed", "InitialBoundaryName": "Hollywood, FL - City Limits;District 3;Code Enforcement Zone 7", "date": "2023-08-09 16:29:22" }, "geometry": { "type": "Point", "coordinates": [ -80.1571947, 26.0248957 ] } },
{ "type": "Feature", "properties": { "request_type": "Flooding Issues", "Latitude": 26.0174313, "Longitude": -80.2175396, "Address": "6440 Johnson St, Hollywood, FL 33024", "AdditionalData": "Select a Request Type=Flooding Issues", "StatusType": "Completed", "InitialBoundaryName": "Hollywood, FL - City Limits;District 5;Code Enforcement Zone 11", "date": "2023-08-07 18:16:46" }, "geometry": { "type": "Point", "coordinates": [ -80.2175396, 26.0174313 ] } },
{ "type": "Feature", "properties": { "request_type": "Flooding Issues", "Latitude": 26.0104311, "Longitude": -80.1895909, "Address": "Hollywood Blvd & St 46 Av, Hollywood, FL 33021", "AdditionalData": "Select a Request Type=Flooding Issues", "StatusType": "Completed", "InitialBoundaryName": "Hollywood, FL - City Limits;District 3;Code Enforcement Zone 8", "date": "2023-08-07 15:03:18" }, "geometry": { "type": "Point", "coordinates": [ -80.1895909, 26.0104311 ] } },
{ "type": "Feature", "properties": { "request_type": "Flooding Issues", "Latitude": 26.0173971, "Longitude": -80.1652508, "Address": "2847 Lincoln St, Hollywood, FL 33020", "AdditionalData": "Select a Request Type=Flooding Issues", "StatusType": "Completed", "InitialBoundaryName": "Hollywood, FL - City Limits;District 3;Code Enforcement Zone 7", "date": "2023-08-04 7:32:52" }, "geometry": { "type": "Point", "coordinates": [ -80.1652508, 26.0173971 ] } },
{ "type": "Feature", "properties": { "request_type": "Flooding Issues", "Latitude": 26.0173971, "Longitude": -80.1652508, "Address": "2847 Lincoln St, Hollywood, FL 33020", "AdditionalData": "Select a Request Type=Flooding Issues", "StatusType": "Completed", "InitialBoundaryName": "Hollywood, FL - City Limits;District 3;Code Enforcement Zone 7", "date": "2023-08-03 12:14:12" }, "geometry": { "type": "Point", "coordinates": [ -80.1652508, 26.0173971 ] } },
{ "type": "Feature", "properties": { "request_type": "Flooding Issues", "Latitude": 26.0061484, "Longitude": -80.1661956, "Address": "2927 Madison St, Hollywood, FL 33020", "AdditionalData": "Select a Request Type=Flooding Issues", "StatusType": "Completed", "InitialBoundaryName": "Hollywood, FL - City Limits;District 2;Code Enforcement Zone 4", "date": "2023-08-01 16:16:11" }, "geometry": { "type": "Point", "coordinates": [ -80.1661956, 26.0061484 ] } },
{ "type": "Feature", "properties": { "request_type": "Flooding Issues", "Latitude": 26.024732, "Longitude": -80.1803745, "Address": "3608 Taft St, Hollywood, FL 33021", "AdditionalData": "Select a Request Type=Flooding Issues", "StatusType": "Completed", "InitialBoundaryName": "Hollywood, FL - City Limits;District 3;Code Enforcement Zone 8", "date": "2023-07-31 16:07:08" }, "geometry": { "type": "Point", "coordinates": [ -80.1803745, 26.024732 ] } },
{ "type": "Feature", "properties": { "request_type": "Flooding Issues", "Latitude": 26.007846, "Longitude": -80.1832384, "Address": "312 S Rainbow Dr, Hollywood, FL 33021", "AdditionalData": "Select a Request Type=Flooding Issues", "StatusType": "Completed", "InitialBoundaryName": "Hollywood, FL - City Limits;District 6;Code Enforcement Zone 9", "date": "2023-07-29 14:07:48" }, "geometry": { "type": "Point", "coordinates": [ -80.1832384, 26.007846 ] } },
{ "type": "Feature", "properties": { "request_type": "Flooding Issues", "Latitude": 26.0119079, "Longitude": -80.130286, "Address": "68 N 12th Ave, Hollywood, FL 33019", "AdditionalData": "Select a Request Type=Flooding Issues", "StatusType": "Completed", "InitialBoundaryName": "Hollywood, FL - City Limits;District 1;Code Enforcement Zone 1", "date": "2023-07-29 7:49:37" }, "geometry": { "type": "Point", "coordinates": [ -80.130286, 26.0119079 ] } },
{ "type": "Feature", "properties": { "request_type": "Flooding Issues", "Latitude": 25.9987264, "Longitude": -80.1539008, "Address": "2406 Wiley St, Hollywood, FL 33020", "AdditionalData": "Select a Request Type=Flooding Issues", "StatusType": "Completed", "InitialBoundaryName": "Hollywood, FL - City Limits;District 2;Code Enforcement Zone 4", "date": "2023-07-29 7:38:38" }, "geometry": { "type": "Point", "coordinates": [ -80.1539008, 25.9987264 ] } },
{ "type": "Feature", "properties": { "request_type": "Flooding Issues", "Latitude": 26.0323614, "Longitude": -80.1595464, "Address": "2318 N 26th Ave, Hollywood, FL 33020", "AdditionalData": "Select a Request Type=Flooding Issues", "StatusType": "In Process", "InitialBoundaryName": "Hollywood, FL - City Limits;District 3;Code Enforcement Zone 7", "date": "2023-07-29 7:11:32" }, "geometry": { "type": "Point", "coordinates": [ -80.1595464, 26.0323614 ] } },
{ "type": "Feature", "properties": { "request_type": "Flooding Issues", "Latitude": 26.0301109, "Longitude": -80.1350128, "Address": "2125 N 14th Ave, Hollywood, FL 33020", "AdditionalData": "Select a Request Type=Flooding Issues", "StatusType": "Completed", "InitialBoundaryName": "Hollywood, FL - City Limits;District 1;Code Enforcement Zone 1", "date": "2023-07-28 12:44:31" }, "geometry": { "type": "Point", "coordinates": [ -80.1350128, 26.0301109 ] } },
{ "type": "Feature", "properties": { "request_type": "Flooding Issues", "Latitude": 26.0315065, "Longitude": -80.1617189, "Address": "2651 Thomas St, Hollywood, FL 33020", "AdditionalData": "Select a Request Type=Flooding Issues", "StatusType": "Completed", "InitialBoundaryName": "Hollywood, FL - City Limits;District 3;Code Enforcement Zone 7", "date": "2023-07-28 12:39:25" }, "geometry": { "type": "Point", "coordinates": [ -80.1617189, 26.0315065 ] } },
{ "type": "Feature", "properties": { "request_type": "Flooding Issues", "Latitude": 26.0227837, "Longitude": -80.1352069, "Address": "1328 Arthur St, Hollywood, FL 33019", "AdditionalData": "Select a Request Type=Flooding Issues", "StatusType": "Completed", "InitialBoundaryName": "Hollywood, FL - City Limits;District 1;Code Enforcement Zone 1", "date": "2023-07-28 7:12:39" }, "geometry": { "type": "Point", "coordinates": [ -80.1352069, 26.0227837 ] } },
{ "type": "Feature", "properties": { "request_type": "Flooding Issues", "Latitude": 26.0171792, "Longitude": -80.1634884, "Address": "700 N 28th Ave, Hollywood, FL 33020", "AdditionalData": "Select a Request Type=Flooding Issues", "StatusType": "Completed", "InitialBoundaryName": "Hollywood, FL - City Limits;District 3;Code Enforcement Zone 7", "date": "2023-07-28 7:02:57" }, "geometry": { "type": "Point", "coordinates": [ -80.1634884, 26.0171792 ] } },
{ "type": "Feature", "properties": { "request_type": "Flooding Issues", "Latitude": 26.0172022, "Longitude": -80.1295785, "Address": "1135 N North Lake Dr, Hollywood, FL 33019", "AdditionalData": "Select a Request Type=Flooding Issues", "StatusType": "Completed", "InitialBoundaryName": "Hollywood, FL - City Limits;District 1;Code Enforcement Zone 1", "date": "2023-07-27 20:45:39" }, "geometry": { "type": "Point", "coordinates": [ -80.1295785, 26.0172022 ] } },
{ "type": "Feature", "properties": { "request_type": "Flooding Issues", "Latitude": 26.0406857, "Longitude": -80.1772463, "Address": "3360 N 34th St, Hollywood, FL 33021", "AdditionalData": "Select a Request Type=Flooding Issues", "StatusType": "Completed", "InitialBoundaryName": "Hollywood, FL - City Limits;District 4;Code Enforcement Zone 5", "date": "2023-07-27 20:18:42" }, "geometry": { "type": "Point", "coordinates": [ -80.1772463, 26.0406857 ] } },
{ "type": "Feature", "properties": { "request_type": "Flooding Issues", "Latitude": 26.0154901, "Longitude": -80.1702204, "Address": "601 N 31st Ave, Hollywood, FL 33021", "AdditionalData": "Select a Request Type=Flooding Issues", "StatusType": "Completed", "InitialBoundaryName": "Hollywood, FL - City Limits;District 3;Code Enforcement Zone 7", "date": "2023-07-27 20:17:12" }, "geometry": { "type": "Point", "coordinates": [ -80.1702204, 26.0154901 ] } },
{ "type": "Feature", "properties": { "request_type": "Flooding Issues", "Latitude": 26.0154901, "Longitude": -80.1702204, "Address": "601 N 31st Ave, Hollywood, FL 33021", "AdditionalData": "Select a Request Type=Flooding Issues", "StatusType": "Completed", "InitialBoundaryName": "Hollywood, FL - City Limits;District 3;Code Enforcement Zone 7", "date": "2023-07-27 20:01:00" }, "geometry": { "type": "Point", "coordinates": [ -80.1702204, 26.0154901 ] } },
{ "type": "Feature", "properties": { "request_type": "Maintenance Required", "Latitude": 26.0377248, "Longitude": -80.2277507, "Address": "Driftwood Park, 3000 N 69th Ave, Hollywood, FL 33024", "AdditionalData": "Select a Request Type=Maintenance Required|What is the maintenance issue=Other", "StatusType": "In Process", "InitialBoundaryName": "Hollywood, FL - City Limits;District 5;Code Enforcement Zone 12", "date": "2023-04-12 17:41:21" }, "geometry": { "type": "Point", "coordinates": [ -80.2277507, 26.0377248 ] } },
{ "type": "Feature", "properties": { "request_type": "Missed Pick-up", "Latitude": 26.019876, "Longitude": -80.1325178, "Address": "911 N 13th Ave, Hollywood, FL 33019", "AdditionalData": "Select a Request Type=Missed Pick-up|What type of pick-up was missed=Recycling", "StatusType": "Completed", "InitialBoundaryName": "Hollywood, FL - City Limits;District 1;Code Enforcement Zone 1", "date": "2023-08-07 19:58:02" }, "geometry": { "type": "Point", "coordinates": [ -80.1325178, 26.019876 ] } },
{ "type": "Feature", "properties": { "request_type": "Missed Pick-up", "Latitude": 25.9995304, "Longitude": -80.1348151, "Address": "1402 Wiley St, Hollywood, FL 33020", "AdditionalData": "Select a Request Type=Missed Pick-up|What type of pick-up was missed=Brush/Hard Junk", "StatusType": "Completed", "InitialBoundaryName": "Hollywood, FL - City Limits;District 1;Code Enforcement Zone 2", "date": "2023-04-24 7:16:52" }, "geometry": { "type": "Point", "coordinates": [ -80.1348151, 25.9995304 ] } },
{ "type": "Feature", "properties": { "request_type": "Other Requests", "Latitude": 26.0119079, "Longitude": -80.130286, "Address": "68 N 12th Ave, Hollywood, FL 33019", "AdditionalData": "Select a Request Type=Other Requests", "StatusType": "Completed", "InitialBoundaryName": "Hollywood, FL - City Limits;District 1;Code Enforcement Zone 1", "date": "2023-11-15 12:38:38" }, "geometry": { "type": "Point", "coordinates": [ -80.130286, 26.0119079 ] } },
{ "type": "Feature", "properties": { "request_type": "Other Requests", "Latitude": 26.0419674, "Longitude": -80.2211809, "Address": "3701 N 66th Ave, Hollywood, FL 33024", "AdditionalData": "Select a Request Type=Other Requests", "StatusType": "In Process", "InitialBoundaryName": "Hollywood, FL - City Limits;District 4;Code Enforcement Zone 6", "date": "2023-10-09 10:04:42" }, "geometry": { "type": "Point", "coordinates": [ -80.2211809, 26.0419674 ] } },
{ "type": "Feature", "properties": { "request_type": "Other Requests", "Latitude": 26.0264019, "Longitude": -80.1759559, "Address": "3310 Wilson St, Hollywood, FL 33021", "AdditionalData": "Select a Request Type=Other Requests", "StatusType": "Referred to Dept", "InitialBoundaryName": "Hollywood, FL - City Limits;District 3;Code Enforcement Zone 8", "date": "2023-08-24 23:31:48" }, "geometry": { "type": "Point", "coordinates": [ -80.1759559, 26.0264019 ] } },
{ "type": "Feature", "properties": { "request_type": "Other Requests", "Latitude": 26.0317043, "Longitude": -80.229343, "Address": "Sheridan St & N 70 Ter, Hollywood, FL 33024", "AdditionalData": "Select a Request Type=Other Requests", "StatusType": "Received", "InitialBoundaryName": "Hollywood, FL - City Limits;District 5;Code Enforcement Zone 12", "date": "2023-08-14 16:25:36" }, "geometry": { "type": "Point", "coordinates": [ -80.229343, 26.0317043 ] } },
{ "type": "Feature", "properties": { "request_type": "Other Requests", "Latitude": 26.0304262, "Longitude": -80.1350053, "Address": "2106 N 14th Ave, Hollywood, FL 33020", "AdditionalData": "Select a Request Type=Other Requests", "StatusType": "Completed", "InitialBoundaryName": "Hollywood, FL - City Limits;District 1;Code Enforcement Zone 1", "date": "2023-08-04 22:53:22" }, "geometry": { "type": "Point", "coordinates": [ -80.1350053, 26.0304262 ] } },
{ "type": "Feature", "properties": { "request_type": "Other Requests", "Latitude": 25.9970013, "Longitude": -80.1346131, "Address": "1405 Moffett St, Hollywood, FL 33020", "AdditionalData": "Select a Request Type=Other Requests", "StatusType": "Referred to Dept", "InitialBoundaryName": "Hollywood, FL - City Limits;District 1;Code Enforcement Zone 2", "date": "2023-06-01 11:39:33" }, "geometry": { "type": "Point", "coordinates": [ -80.1346131, 25.9970013 ] } },
{ "type": "Feature", "properties": { "request_type": "Other Requests", "Latitude": 25.9995275, "Longitude": -80.134871, "Address": "1402 Wiley St, Hollywood, FL 33020", "AdditionalData": "Select a Request Type=Other Requests", "StatusType": "Completed", "InitialBoundaryName": "Hollywood, FL - City Limits;District 1;Code Enforcement Zone 2", "date": "2023-05-04 10:43:46" }, "geometry": { "type": "Point", "coordinates": [ -80.134871, 25.9995275 ] } },
{ "type": "Feature", "properties": { "request_type": "Other Requests", "Latitude": 26.0285205, "Longitude": -80.1354656, "Address": "1407 Harding St, Hollywood, FL 33020", "AdditionalData": "Select a Request Type=Other Requests", "StatusType": "Referred to Dept", "InitialBoundaryName": "Hollywood, FL - City Limits;District 1;Code Enforcement Zone 1", "date": "2023-03-09 21:24:23" }, "geometry": { "type": "Point", "coordinates": [ -80.1354656, 26.0285205 ] } },
{ "type": "Feature", "properties": { "request_type": "Other Requests", "Latitude": 26.0183391, "Longitude": -80.1589719, "Address": "2542 Johnson St, Hollywood, FL 33020", "AdditionalData": "Select a Request Type=Other Requests", "StatusType": "Completed", "InitialBoundaryName": "Hollywood, FL - City Limits;District 3;Code Enforcement Zone 7", "date": "2023-02-22 14:09:16" }, "geometry": { "type": "Point", "coordinates": [ -80.1589719, 26.0183391 ] } },
{ "type": "Feature", "properties": { "request_type": "Other Requests", "Latitude": 26.0129226, "Longitude": -80.1286333, "Address": "1111 Tyler St, Hollywood, FL, 33019", "AdditionalData": "Select a Request Type=Other Requests", "StatusType": "Completed", "InitialBoundaryName": "Hollywood, FL - City Limits;District 1;Code Enforcement Zone 1", "date": "2021-11-05 7:22:46" }, "geometry": { "type": "Point", "coordinates": [ -80.1286333, 26.0129226 ] } },
{ "type": "Feature", "properties": { "request_type": "Other Signs", "Latitude": 26.0171792, "Longitude": -80.1634884, "Address": "N 28th Ave & Lincoln St, Hollywood, FL 33020", "AdditionalData": "Select a Request Type=Other Signs", "StatusType": "Received", "InitialBoundaryName": "Hollywood, FL - City Limits;District 3;Code Enforcement Zone 7", "date": "2023-04-14 8:01:26" }, "geometry": { "type": "Point", "coordinates": [ -80.1634884, 26.0171792 ] } },
{ "type": "Feature", "properties": { "request_type": "Police Issues", "Latitude": 26.0162048, "Longitude": -80.1658612, "Address": "2905 Pierce St, Hollywood, FL 33020", "AdditionalData": "Select a Request Type=Police Issues", "StatusType": "Received", "InitialBoundaryName": "Hollywood, FL - City Limits;District 3;Code Enforcement Zone 7", "date": "2023-09-19 17:47:59" }, "geometry": { "type": "Point", "coordinates": [ -80.1658612, 26.0162048 ] } },
{ "type": "Feature", "properties": { "request_type": "Pothole or road issue", "Latitude": 26.0217816, "Longitude": -80.1838984, "Address": "1300 N 40th Ave, Hollywood, FL 33021", "AdditionalData": "Select a Request Type=Pothole or road issue", "StatusType": "In Process", "InitialBoundaryName": "Hollywood, FL - City Limits;District 3;Code Enforcement Zone 8", "date": "2023-11-28 13:57:34" }, "geometry": { "type": "Point", "coordinates": [ -80.1838984, 26.0217816 ] } },
{ "type": "Feature", "properties": { "request_type": "Pothole or road issue", "Latitude": 26.0236261, "Longitude": -80.1850586, "Address": "1501 N Yale Dr, Hollywood, FL 33021", "AdditionalData": "Select a Request Type=Pothole or road issue", "StatusType": "In Process", "InitialBoundaryName": "Hollywood, FL - City Limits;District 3;Code Enforcement Zone 8", "date": "2023-11-28 13:56:05" }, "geometry": { "type": "Point", "coordinates": [ -80.1850586, 26.0236261 ] } },
{ "type": "Feature", "properties": { "request_type": "Pothole or road issue", "Latitude": 26.0341849, "Longitude": -80.1902967, "Address": "4603 W St Andrews Rd, Hollywood, FL, 33021", "AdditionalData": "Select a Request Type=Pothole or road issue", "StatusType": "Completed", "InitialBoundaryName": "Hollywood, FL - City Limits;District 4;Code Enforcement Zone 5", "date": "2023-08-10 12:46:24" }, "geometry": { "type": "Point", "coordinates": [ -80.1902967, 26.0341849 ] } },
{ "type": "Feature", "properties": { "request_type": "Pothole or road issue", "Latitude": 26.0279283, "Longitude": -80.1625256, "Address": "2671 Harding St, Hollywood, FL 33020", "AdditionalData": "Select a Request Type=Pothole or road issue", "StatusType": "Completed", "InitialBoundaryName": "Hollywood, FL - City Limits;District 3;Code Enforcement Zone 7", "date": "2023-05-18 17:40:50" }, "geometry": { "type": "Point", "coordinates": [ -80.1625256, 26.0279283 ] } },
{ "type": "Feature", "properties": { "request_type": "Pothole or road issue", "Latitude": 26.0375834, "Longitude": -80.1896116, "Address": "4500 Casper Ct, Hollywood, FL 33021", "AdditionalData": "Select a Request Type=Pothole or road issue", "StatusType": "Completed", "InitialBoundaryName": "Hollywood, FL - City Limits;District 4;Code Enforcement Zone 5", "date": "2023-05-12 15:41:18" }, "geometry": { "type": "Point", "coordinates": [ -80.1896116, 26.0375834 ] } },
{ "type": "Feature", "properties": { "request_type": "Pothole or road issue", "Latitude": 26.0286669, "Longitude": -80.1921164, "Address": "4800 W Park Rd, Hollywood, FL 33021", "AdditionalData": "Select a Request Type=Pothole or road issue", "StatusType": "Completed", "InitialBoundaryName": "Hollywood, FL - City Limits;District 3;Code Enforcement Zone 8", "date": "2023-04-21 16:29:49" }, "geometry": { "type": "Point", "coordinates": [ -80.1921164, 26.0286669 ] } },
{ "type": "Feature", "properties": { "request_type": "Pothole or road issue", "Latitude": 26.0298886, "Longitude": -80.1754925, "Address": "2126 N Park Rd, Hollywood, FL, 33021", "AdditionalData": "Select a Request Type=Pothole or road issue", "StatusType": "Completed", "InitialBoundaryName": "Hollywood, FL - City Limits;District 3;Code Enforcement Zone 8", "date": "2023-04-18 8:48:48" }, "geometry": { "type": "Point", "coordinates": [ -80.1754925, 26.0298886 ] } },
{ "type": "Feature", "properties": { "request_type": "Pothole or road issue", "Latitude": 26.0187701, "Longitude": -80.1740843, "Address": "3229 Johnson St, Hollywood, FL 33021", "AdditionalData": "Select a Request Type=Pothole or road issue", "StatusType": "Completed", "InitialBoundaryName": "Hollywood, FL - City Limits;District 3;Code Enforcement Zone 7", "date": "2022-11-29 14:37:45" }, "geometry": { "type": "Point", "coordinates": [ -80.1740843, 26.0187701 ] } },
{ "type": "Feature", "properties": { "request_type": "Pothole or road issue", "Latitude": 26.0164443, "Longitude": -80.1743889, "Address": "3241 Buchanan St, Hollywood, FL 33021", "AdditionalData": "Select a Request Type=Pothole or road issue", "StatusType": "Completed", "InitialBoundaryName": "Hollywood, FL - City Limits;District 3;Code Enforcement Zone 7", "date": "2022-11-25 9:19:27" }, "geometry": { "type": "Point", "coordinates": [ -80.1743889, 26.0164443 ] } },
{ "type": "Feature", "properties": { "request_type": "Pothole or road issue", "Latitude": 26.0298483, "Longitude": -80.155523, "Address": "2403 Scott St, Hollywood, FL, 33020", "AdditionalData": "Select a Request Type=Pothole or road issue", "StatusType": "Completed", "InitialBoundaryName": "Hollywood, FL - City Limits", "date": "2022-10-24 14:11:44" }, "geometry": { "type": "Point", "coordinates": [ -80.155523, 26.0298483 ] } },
{ "type": "Feature", "properties": { "request_type": "Property Standards", "Latitude": 26.0169402, "Longitude": -80.1645632, "Address": "2834 Lincoln St, Hollywood, FL 33020", "AdditionalData": "Select a Request Type=Property Standards|What is the issue=Work Without a Permit|Name=Kayla Madera|Your Home Address=.. Lincoln st", "StatusType": "Completed", "InitialBoundaryName": "Hollywood, FL - City Limits;District 3;Code Enforcement Zone 7", "date": "2024-04-23 14:12:21" }, "geometry": { "type": "Point", "coordinates": [ -80.1645632, 26.0169402 ] } },
{ "type": "Feature", "properties": { "request_type": "Property Standards", "Latitude": 26.0570629, "Longitude": -80.1914932, "Address": "5298 SW 34th Terrace, Fort Lauderdale, FL 33312", "AdditionalData": "Select a Request Type=Property Standards|What is the issue=Work Without a Permit|Name=Harold Zombeck|Your Home Address=5298 SW 34 Terrace", "StatusType": "Completed", "InitialBoundaryName": "Hollywood, FL - City Limits;District 4;Code Enforcement Zone 5", "date": "2023-11-21 21:50:40" }, "geometry": { "type": "Point", "coordinates": [ -80.1914932, 26.0570629 ] } },
{ "type": "Feature", "properties": { "request_type": "Repair/Replace Cart and/or lid", "Latitude": 25.9995275, "Longitude": -80.134871, "Address": "1402 Wiley St, Hollywood, FL 33020", "AdditionalData": "Select a Request Type=Repair/Replace Cart and/or lid", "StatusType": "In Process", "InitialBoundaryName": "Hollywood, FL - City Limits;District 1;Code Enforcement Zone 2", "date": "2023-11-29 23:19:11" }, "geometry": { "type": "Point", "coordinates": [ -80.134871, 25.9995275 ] } },
{ "type": "Feature", "properties": { "request_type": "Repair/Replace Cart and/or lid", "Latitude": 26.0232293, "Longitude": -80.1690004, "Address": "1341 N 30th Rd, Hollywood, FL 33021", "AdditionalData": "Select a Request Type=Repair/Replace Cart and/or lid", "StatusType": "Completed", "InitialBoundaryName": "Hollywood, FL - City Limits;District 3;Code Enforcement Zone 7", "date": "2023-08-21 17:12:00" }, "geometry": { "type": "Point", "coordinates": [ -80.1690004, 26.0232293 ] } },
{ "type": "Feature", "properties": { "request_type": "Repair/Replace Cart and/or lid", "Latitude": 25.9995138, "Longitude": -80.1355992, "Address": "1418 Wiley St, Hollywood, FL 33020", "AdditionalData": "Select a Request Type=Repair/Replace Cart and/or lid", "StatusType": "In Process", "InitialBoundaryName": "Hollywood, FL - City Limits;District 1;Code Enforcement Zone 2", "date": "2023-04-18 12:37:43" }, "geometry": { "type": "Point", "coordinates": [ -80.1355992, 25.9995138 ] } },
{ "type": "Feature", "properties": { "request_type": "Repair/Replace Cart and/or lid", "Latitude": 26.030366, "Longitude": -80.1742761, "Address": "3215 Liberty St, Hollywood, FL 33021", "AdditionalData": "Select a Request Type=Repair/Replace Cart and/or lid", "StatusType": "Completed", "InitialBoundaryName": "Hollywood, FL - City Limits;District 3;Code Enforcement Zone 7", "date": "2023-04-17 19:14:14" }, "geometry": { "type": "Point", "coordinates": [ -80.1742761, 26.030366 ] } },
{ "type": "Feature", "properties": { "request_type": "Repair/Replace Cart and/or lid", "Latitude": 26.0136128, "Longitude": -80.1253737, "Address": "215 N 10th Ave, Hollywood, FL 33019", "AdditionalData": "Select a Request Type=Repair/Replace Cart and/or lid", "StatusType": "Completed", "InitialBoundaryName": "Hollywood, FL - City Limits;District 1;Code Enforcement Zone 1", "date": "2023-04-15 16:39:36" }, "geometry": { "type": "Point", "coordinates": [ -80.1253737, 26.0136128 ] } },
{ "type": "Feature", "properties": { "request_type": "Sewer", "Latitude": 26.0199823, "Longitude": -80.1329624, "Address": "914 N 13th Ave, Hollywood, FL 33019", "AdditionalData": "Select a Request Type=Sewage Spills/Odors", "StatusType": "Completed", "InitialBoundaryName": "Hollywood, FL - City Limits;District 1;Code Enforcement Zone 1", "date": "2023-06-18 13:41:33" }, "geometry": { "type": "Point", "coordinates": [ -80.1329624, 26.0199823 ] } },
{ "type": "Feature", "properties": { "request_type": "Sewer", "Latitude": 26.022026, "Longitude": -80.1719992, "Address": "1040 N 31st Rd, Hollywood, FL 33021", "AdditionalData": "Select a Request Type=Sewage Spills/Odors", "StatusType": "Completed", "InitialBoundaryName": "Hollywood, FL - City Limits;District 3;Code Enforcement Zone 7", "date": "2023-04-17 13:58:10" }, "geometry": { "type": "Point", "coordinates": [ -80.1719992, 26.022026 ] } },
{ "type": "Feature", "properties": { "request_type": "Sewer", "Latitude": 26.0109472, "Longitude": -80.1308029, "Address": "1215 Harrison St, Hollywood, FL 33019", "AdditionalData": "Select a Request Type=Sewage Spills/Odors", "StatusType": "Completed", "InitialBoundaryName": "Hollywood, FL - City Limits;District 1;Code Enforcement Zone 2", "date": "2022-09-25 10:07:54" }, "geometry": { "type": "Point", "coordinates": [ -80.1308029, 26.0109472 ] } },
{ "type": "Feature", "properties": { "request_type": "Sewer", "Latitude": 26.022877, "Longitude": -80.162614, "Address": "2720 Cleveland St, Hollywood, FL, 33020", "AdditionalData": "Select a Request Type=Sewage Spills/Odors", "StatusType": "Completed", "InitialBoundaryName": "Hollywood, FL - City Limits;District 3;Code Enforcement Zone 7", "date": "2022-06-04 10:50:18" }, "geometry": { "type": "Point", "coordinates": [ -80.162614, 26.022877 ] } },
{ "type": "Feature", "properties": { "request_type": "Sewer", "Latitude": 26.0161357, "Longitude": -80.1451299, "Address": "1900 Pierce St, Hollywood, FL, 33020", "AdditionalData": "Select a Request Type=Sewage Spills/Odors", "StatusType": "Completed", "InitialBoundaryName": "Hollywood, FL - City Limits;District 2;Code Enforcement Zone 204", "date": "2022-06-04 10:37:22" }, "geometry": { "type": "Point", "coordinates": [ -80.1451299, 26.0161357 ] } },
{ "type": "Feature", "properties": { "request_type": "Sewer", "Latitude": 26.016173, "Longitude": -80.1451456, "Address": "604 N 19th Ave, Hollywood, FL, 33020", "AdditionalData": "Select a Request Type=Sewage Spills/Odors", "StatusType": "Completed", "InitialBoundaryName": "Hollywood, FL - City Limits;District 2;Code Enforcement Zone 204", "date": "2022-06-04 10:34:14" }, "geometry": { "type": "Point", "coordinates": [ -80.1451456, 26.016173 ] } },
{ "type": "Feature", "properties": { "request_type": "Sewer", "Latitude": 26.0197208, "Longitude": -80.1372203, "Address": "925 N 15 Ave, Hollywood, FL, 33020", "AdditionalData": "Select a Request Type=Sewage Spills/Odors", "StatusType": "Completed", "InitialBoundaryName": "Hollywood, FL - City Limits;District 1;Code Enforcement Zone 1", "date": "2022-01-20 23:03:58" }, "geometry": { "type": "Point", "coordinates": [ -80.1372203, 26.0197208 ] } },
{ "type": "Feature", "properties": { "request_type": "Sewer", "Latitude": 26.0179002, "Longitude": -80.1372921, "Address": "1505 Johnson St, Hollywood, FL, 330203710", "AdditionalData": "Select a Request Type=Sewage Spills/Odors", "StatusType": "Completed", "InitialBoundaryName": "Hollywood, FL - City Limits;District 1;Code Enforcement Zone 1", "date": "2021-11-05 10:15:16" }, "geometry": { "type": "Point", "coordinates": [ -80.1372921, 26.0179002 ] } },
{ "type": "Feature", "properties": { "request_type": "Sidewalk Issues", "Latitude": 26.0046882, "Longitude": -80.1327699, "Address": "1305 Washington St, Hollywood, FL 33019", "AdditionalData": "Select a Request Type=Sidewalk Issues", "StatusType": "In Process", "InitialBoundaryName": "Hollywood, FL - City Limits;District 1;Code Enforcement Zone 2", "date": "2024-02-19 8:04:57" }, "geometry": { "type": "Point", "coordinates": [ -80.1327699, 26.0046882 ] } },
{ "type": "Feature", "properties": { "request_type": "Sidewalk Issues", "Latitude": 26.0150375, "Longitude": -80.1724426, "Address": "326 N 32nd Ave, Hollywood, FL 33021", "AdditionalData": "Select a Request Type=Sidewalk Issues", "StatusType": "In Process", "InitialBoundaryName": "Hollywood, FL - City Limits;District 3;Code Enforcement Zone 7", "date": "2023-12-29 16:31:03" }, "geometry": { "type": "Point", "coordinates": [ -80.1724426, 26.0150375 ] } },
{ "type": "Feature", "properties": { "request_type": "Sidewalk Issues", "Latitude": 26.0039035, "Longitude": -80.1483783, "Address": "2040 Washington St, Hollywood, FL 33020", "AdditionalData": "Select a Request Type=Sidewalk Issues", "StatusType": "In Process", "InitialBoundaryName": "Hollywood, FL - City Limits;District 2;Code Enforcement Zone 4", "date": "2023-08-28 13:54:09" }, "geometry": { "type": "Point", "coordinates": [ -80.1483783, 26.0039035 ] } },
{ "type": "Feature", "properties": { "request_type": "Sidewalk Issues", "Latitude": 26.0132532, "Longitude": -80.2151352, "Address": "6327 Taylor St, Hollywood, FL, 33024", "AdditionalData": "Select a Request Type=Sidewalk Issues", "StatusType": "In Process", "InitialBoundaryName": "Hollywood, FL - City Limits;District 5;Code Enforcement Zone 11", "date": "2023-05-03 10:55:01" }, "geometry": { "type": "Point", "coordinates": [ -80.2151352, 26.0132532 ] } },
{ "type": "Feature", "properties": { "request_type": "Sidewalk Issues", "Latitude": 26.0298886, "Longitude": -80.1754925, "Address": "2126 N Park Rd, Hollywood, FL, 33021", "AdditionalData": "Select a Request Type=Sidewalk Issues", "StatusType": "In Process", "InitialBoundaryName": "Hollywood, FL - City Limits;District 3;Code Enforcement Zone 8", "date": "2023-04-18 8:59:01" }, "geometry": { "type": "Point", "coordinates": [ -80.1754925, 26.0298886 ] } },
{ "type": "Feature", "properties": { "request_type": "Sidewalk Issues", "Latitude": 26.0351797, "Longitude": -80.2223037, "Address": "6640 Atlanta St, Hollywood, FL, 33024", "AdditionalData": "Select a Request Type=Sidewalk Issues", "StatusType": "Completed", "InitialBoundaryName": "Hollywood, FL - City Limits;District 4;Code Enforcement Zone 6", "date": "2023-04-12 17:56:12" }, "geometry": { "type": "Point", "coordinates": [ -80.2223037, 26.0351797 ] } },
{ "type": "Feature", "properties": { "request_type": "Sidewalk Issues", "Latitude": 26.0219522, "Longitude": -80.1409782, "Address": "1205 N 17th Ave, Hollywood, FL 33020", "AdditionalData": "Select a Request Type=Sidewalk Issues", "StatusType": "In Process", "InitialBoundaryName": "Hollywood, FL - City Limits;District 1;Code Enforcement Zone 1", "date": "2022-09-23 11:05:11" }, "geometry": { "type": "Point", "coordinates": [ -80.1409782, 26.0219522 ] } },
{ "type": "Feature", "properties": { "request_type": "Sidewalk Issues", "Latitude": 26.0112014, "Longitude": -80.1494901, "Address": "Johnson St, Hollywood, FL, 33020", "AdditionalData": "Select a Request Type=Sidewalk Issues", "StatusType": "Submitted", "InitialBoundaryName": "Hollywood, FL - City Limits;District 2;Code Enforcement Zone 204", "date": "2021-11-29 13:22:39" }, "geometry": { "type": "Point", "coordinates": [ -80.1494901, 26.0112014 ] } },
{ "type": "Feature", "properties": { "request_type": "Storm Drain", "Latitude": 26.0285121, "Longitude": -80.2081469, "Address": "3301 N State Rd 7, Hollywood, FL 33021", "AdditionalData": "Select a Request Type=Storm Drain", "StatusType": "Completed", "InitialBoundaryName": "Hollywood, FL - City Limits;District 4;Code Enforcement Zone 6", "date": "2024-03-04 13:57:18" }, "geometry": { "type": "Point", "coordinates": [ -80.2081469, 26.0285121 ] } },
{ "type": "Feature", "properties": { "request_type": "Storm Drain", "Latitude": 25.9989971, "Longitude": -80.1362839, "Address": "1435 Mayo St, Hollywood, FL 33020", "AdditionalData": "Select a Request Type=Storm Drain", "StatusType": "Completed", "InitialBoundaryName": "Hollywood, FL - City Limits;District 1;Code Enforcement Zone 2", "date": "2024-02-26 17:39:09" }, "geometry": { "type": "Point", "coordinates": [ -80.1362839, 25.9989971 ] } },
{ "type": "Feature", "properties": { "request_type": "Storm Drain", "Latitude": 26.0278985, "Longitude": -80.1620896, "Address": "1900 Waterview Pl, Hollywood, FL 33020", "AdditionalData": "Select a Request Type=Storm Drain", "StatusType": "In Process", "InitialBoundaryName": "Hollywood, FL - City Limits;District 3;Code Enforcement Zone 7", "date": "2023-11-21 8:25:57" }, "geometry": { "type": "Point", "coordinates": [ -80.1620896, 26.0278985 ] } },
{ "type": "Feature", "properties": { "request_type": "Storm Drain", "Latitude": 26.0189959, "Longitude": -80.1311911, "Address": "1216 Johnson St, Hollywood, FL 33019", "AdditionalData": "Select a Request Type=Storm Drain", "StatusType": "Completed", "InitialBoundaryName": "Hollywood, FL - City Limits;District 1;Code Enforcement Zone 1", "date": "2023-11-05 19:43:52" }, "geometry": { "type": "Point", "coordinates": [ -80.1311911, 26.0189959 ] } },
{ "type": "Feature", "properties": { "request_type": "Storm Drain", "Latitude": 26.006953, "Longitude": -80.1253434, "Address": "601 S 10th Ave, Hollywood, FL 33019", "AdditionalData": "Select a Request Type=Storm Drain", "StatusType": "Completed", "InitialBoundaryName": "Hollywood, FL - City Limits;District 1;Code Enforcement Zone 2", "date": "2023-10-10 12:55:55" }, "geometry": { "type": "Point", "coordinates": [ -80.1253434, 26.006953 ] } },
{ "type": "Feature", "properties": { "request_type": "Storm Drain", "Latitude": 26.0348392, "Longitude": -80.1816765, "Address": "3793 Raleigh St, Hollywood, FL 33021", "AdditionalData": "Select a Request Type=Storm Drain", "StatusType": "Completed", "InitialBoundaryName": "Hollywood, FL - City Limits;District 4;Code Enforcement Zone 5", "date": "2023-10-02 10:36:21" }, "geometry": { "type": "Point", "coordinates": [ -80.1816765, 26.0348392 ] } },
{ "type": "Feature", "properties": { "request_type": "Storm Drain", "Latitude": 26.0215639, "Longitude": -80.1838821, "Address": "1221 N 40th Ave, Hollywood, FL 33021", "AdditionalData": "Select a Request Type=Storm Drain", "StatusType": "Completed", "InitialBoundaryName": "Hollywood, FL - City Limits;District 3;Code Enforcement Zone 8", "date": "2023-09-10 14:12:37" }, "geometry": { "type": "Point", "coordinates": [ -80.1838821, 26.0215639 ] } },
{ "type": "Feature", "properties": { "request_type": "Storm Drain", "Latitude": 26.027245, "Longitude": -80.1394305, "Address": "1724 N 16th Ave, Hollywood, FL 33020", "AdditionalData": "Select a Request Type=Storm Drain", "StatusType": "Completed", "InitialBoundaryName": "Hollywood, FL - City Limits;District 1;Code Enforcement Zone 1", "date": "2023-08-28 9:49:11" }, "geometry": { "type": "Point", "coordinates": [ -80.1394305, 26.027245 ] } },
{ "type": "Feature", "properties": { "request_type": "Storm Drain", "Latitude": 26.0414142, "Longitude": -80.1800023, "Address": "35 N 36th Ave, Hollywood, FL 33021", "AdditionalData": "Select a Request Type=Storm Drain", "StatusType": "Completed", "InitialBoundaryName": "Hollywood, FL - City Limits;District 4;Code Enforcement Zone 5", "date": "2023-08-01 16:46:58" }, "geometry": { "type": "Point", "coordinates": [ -80.1800023, 26.0414142 ] } },
{ "type": "Feature", "properties": { "request_type": "Storm Drain", "Latitude": 26.0110906, "Longitude": -80.1488605, "Address": "2066 Hollywood Blvd, Hollywood, FL 33020", "AdditionalData": "Select a Request Type=Storm Drain", "StatusType": "Completed", "InitialBoundaryName": "Hollywood, FL - City Limits;District 2;Code Enforcement Zone 204", "date": "2023-06-06 9:29:49" }, "geometry": { "type": "Point", "coordinates": [ -80.1488605, 26.0110906 ] } },
{ "type": "Feature", "properties": { "request_type": "Storm Drain", "Latitude": 26.004628, "Longitude": -80.1477254, "Address": "2022 Adams St, Hollywood, FL 33020", "AdditionalData": "Select a Request Type=Storm Drain", "StatusType": "Completed", "InitialBoundaryName": "Hollywood, FL - City Limits;District 2;Code Enforcement Zone 204", "date": "2023-04-17 14:41:20" }, "geometry": { "type": "Point", "coordinates": [ -80.1477254, 26.004628 ] } },
{ "type": "Feature", "properties": { "request_type": "Storm Drain", "Latitude": 26.0352431, "Longitude": -80.221217, "Address": "6604 Atlanta St, Hollywood, FL 33024", "AdditionalData": "Select a Request Type=Storm Drain", "StatusType": "Completed", "InitialBoundaryName": "Hollywood, FL - City Limits;District 4;Code Enforcement Zone 6", "date": "2023-04-12 17:49:52" }, "geometry": { "type": "Point", "coordinates": [ -80.221217, 26.0352431 ] } },
{ "type": "Feature", "properties": { "request_type": "Storm Drain", "Latitude": 26.0133644, "Longitude": -80.1208509, "Address": "803 Tyler St, Hollywood, FL 33019", "AdditionalData": "Select a Request Type=Storm Drain", "StatusType": "Completed", "InitialBoundaryName": "Hollywood, FL - City Limits;District 1;Code Enforcement Zone 1", "date": "2023-04-12 17:27:12" }, "geometry": { "type": "Point", "coordinates": [ -80.1208509, 26.0133644 ] } },
{ "type": "Feature", "properties": { "request_type": "Storm Drain", "Latitude": 26.0293449, "Longitude": -80.1782431, "Address": "3401 W Park Rd, Hollywood, FL 33021", "AdditionalData": "Select a Request Type=Storm Drain", "StatusType": "Completed", "InitialBoundaryName": "Hollywood, FL - City Limits;District 3;Code Enforcement Zone 8", "date": "2022-10-13 14:25:16" }, "geometry": { "type": "Point", "coordinates": [ -80.1782431, 26.0293449 ] } },
{ "type": "Feature", "properties": { "request_type": "Storm Drain", "Latitude": 26.0073217, "Longitude": -80.1799712, "Address": "3601 Monroe St, Hollywood, FL 33021", "AdditionalData": "Select a Request Type=Storm Drain", "StatusType": "Completed", "InitialBoundaryName": "Hollywood, FL - City Limits;District 6;Code Enforcement Zone 9", "date": "2022-08-25 17:06:59" }, "geometry": { "type": "Point", "coordinates": [ -80.1799712, 26.0073217 ] } },
{ "type": "Feature", "properties": { "request_type": "Storm Drain", "Latitude": 26.0274409, "Longitude": -80.1711651, "Address": "1900 N 31 Ave, Hollywood, FL, 33021", "AdditionalData": "Select a Request Type=Storm Drain", "StatusType": "Completed", "InitialBoundaryName": "Hollywood, FL - City Limits;District 3;Code Enforcement Zone 7", "date": "2022-01-26 10:05:40" }, "geometry": { "type": "Point", "coordinates": [ -80.1711651, 26.0274409 ] } },
{ "type": "Feature", "properties": { "request_type": "Street Flooding Issues", "Latitude": 26.015944, "Longitude": -80.166014, "Address": "2915 Pierce St, Hollywood, FL 33020", "AdditionalData": "Select a Request Type=Street Flooding Issues", "StatusType": "Received", "InitialBoundaryName": "Hollywood, FL - City Limits;District 3;Code Enforcement Zone 7", "date": "2024-05-02 13:15:28" }, "geometry": { "type": "Point", "coordinates": [ -80.166014, 26.015944 ] } },
{ "type": "Feature", "properties": { "request_type": "Street Flooding Issues", "Latitude": 26.0081116, "Longitude": -80.1174282, "Address": "707 S Ocean Dr, Hollywood, FL 33019", "AdditionalData": "Select a Request Type=Street Flooding Issues", "StatusType": "Completed", "InitialBoundaryName": "Hollywood, FL - City Limits;District 1;Code Enforcement Zone 14", "date": "2024-03-20 11:48:23" }, "geometry": { "type": "Point", "coordinates": [ -80.1174282, 26.0081116 ] } },
{ "type": "Feature", "properties": { "request_type": "Street Flooding Issues", "Latitude": 26.0058396, "Longitude": -80.1460469, "Address": "1934 Jefferson St, Hollywood, FL 33020", "AdditionalData": "Select a Request Type=Street Flooding Issues", "StatusType": "Completed", "InitialBoundaryName": "Hollywood, FL - City Limits;District 2;Code Enforcement Zone 204", "date": "2024-03-15 21:21:49" }, "geometry": { "type": "Point", "coordinates": [ -80.1460469, 26.0058396 ] } },
{ "type": "Feature", "properties": { "request_type": "Street Flooding Issues", "Latitude": 26.0412851, "Longitude": -80.1707226, "Address": "3051 N 34th St, Hollywood, FL 33021", "AdditionalData": "Select a Request Type=Street Flooding Issues", "StatusType": "Completed", "InitialBoundaryName": "Hollywood, FL - City Limits;District 4;Code Enforcement Zone 5", "date": "2024-03-06 17:32:26" }, "geometry": { "type": "Point", "coordinates": [ -80.1707226, 26.0412851 ] } },
{ "type": "Feature", "properties": { "request_type": "Street Flooding Issues", "Latitude": 26.0214431, "Longitude": -80.1594034, "Address": "2551 Garfield St, Hollywood, FL 33020", "AdditionalData": "Select a Request Type=Street Flooding Issues", "StatusType": "Completed", "InitialBoundaryName": "Hollywood, FL - City Limits;District 3;Code Enforcement Zone 7", "date": "2024-02-16 15:04:00" }, "geometry": { "type": "Point", "coordinates": [ -80.1594034, 26.0214431 ] } },
{ "type": "Feature", "properties": { "request_type": "Street Flooding Issues", "Latitude": 26.0120524, "Longitude": -80.1335049, "Address": "1323 Hollywood Blvd, Hollywood, FL 33019", "AdditionalData": "Select a Request Type=Street Flooding Issues", "StatusType": "In Process", "InitialBoundaryName": "Hollywood, FL - City Limits;District 1;Code Enforcement Zone 1", "date": "2024-02-14 15:37:18" }, "geometry": { "type": "Point", "coordinates": [ -80.1335049, 26.0120524 ] } },
{ "type": "Feature", "properties": { "request_type": "Street Flooding Issues", "Latitude": 26.0293714, "Longitude": -80.1632451, "Address": "2710 Scott St, Hollywood, FL 33020", "AdditionalData": "Select a Request Type=Street Flooding Issues", "StatusType": "Completed", "InitialBoundaryName": "Hollywood, FL - City Limits;District 3;Code Enforcement Zone 7", "date": "2024-01-04 19:20:11" }, "geometry": { "type": "Point", "coordinates": [ -80.1632451, 26.0293714 ] } },
{ "type": "Feature", "properties": { "request_type": "Street Flooding Issues", "Latitude": 26.0436865, "Longitude": -80.2015632, "Address": "5640 Allen St, Hollywood, FL 33021", "AdditionalData": "Select a Request Type=Street Flooding Issues", "StatusType": "Completed", "InitialBoundaryName": "Hollywood, FL - City Limits;District 4;Code Enforcement Zone 6", "date": "2023-12-11 15:03:14" }, "geometry": { "type": "Point", "coordinates": [ -80.2015632, 26.0436865 ] } },
{ "type": "Feature", "properties": { "request_type": "Street Flooding Issues", "Latitude": 26.0405349, "Longitude": -80.2203548, "Address": "6471 Pershing St, Hollywood, FL 33024", "AdditionalData": "Select a Request Type=Street Flooding Issues", "StatusType": "Completed", "InitialBoundaryName": "Hollywood, FL - City Limits;District 4;Code Enforcement Zone 6", "date": "2023-11-22 11:15:54" }, "geometry": { "type": "Point", "coordinates": [ -80.2203548, 26.0405349 ] } },
{ "type": "Feature", "properties": { "request_type": "Street Flooding Issues", "Latitude": 26.0158624, "Longitude": -80.166294, "Address": "2940 Pierce St, Hollywood, FL 33020", "AdditionalData": "Select a Request Type=Street Flooding Issues", "StatusType": "Completed", "InitialBoundaryName": "Hollywood, FL - City Limits;District 3;Code Enforcement Zone 7", "date": "2023-11-20 15:41:58" }, "geometry": { "type": "Point", "coordinates": [ -80.166294, 26.0158624 ] } },
{ "type": "Feature", "properties": { "request_type": "Street Flooding Issues", "Latitude": 26.0223731, "Longitude": -80.1323279, "Address": "1237 Garfield St, Hollywood, FL 33019", "AdditionalData": "Select a Request Type=Street Flooding Issues", "StatusType": "Completed", "InitialBoundaryName": "Hollywood, FL - City Limits;District 1;Code Enforcement Zone 1", "date": "2023-11-20 10:09:18" }, "geometry": { "type": "Point", "coordinates": [ -80.1323279, 26.0223731 ] } },
{ "type": "Feature", "properties": { "request_type": "Street Flooding Issues", "Latitude": 26.0279896, "Longitude": -80.1480478, "Address": "2011-2013 Harding St, Hollywood, FL 33020", "AdditionalData": "Select a Request Type=Street Flooding Issues", "StatusType": "Completed", "InitialBoundaryName": "Hollywood, FL - City Limits;District 2;Code Enforcement Zone 3", "date": "2023-11-17 13:56:14" }, "geometry": { "type": "Point", "coordinates": [ -80.1480478, 26.0279896 ] } },
{ "type": "Feature", "properties": { "request_type": "Street Flooding Issues", "Latitude": 26.0289344, "Longitude": -80.1358364, "Address": "1414 Coolidge St, Hollywood, FL 33020", "AdditionalData": "Select a Request Type=Street Flooding Issues", "StatusType": "Completed", "InitialBoundaryName": "Hollywood, FL - City Limits;District 1;Code Enforcement Zone 1", "date": "2023-11-16 19:19:45" }, "geometry": { "type": "Point", "coordinates": [ -80.1358364, 26.0289344 ] } },
{ "type": "Feature", "properties": { "request_type": "Street Flooding Issues", "Latitude": 26.0380877, "Longitude": -80.1530414, "Address": "2245 Freedom St, Hollywood, FL 33020", "AdditionalData": "Select a Request Type=Street Flooding Issues", "StatusType": "Completed", "InitialBoundaryName": "Hollywood, FL - City Limits;District 2;Code Enforcement Zone 3", "date": "2023-11-16 17:46:18" }, "geometry": { "type": "Point", "coordinates": [ -80.1530414, 26.0380877 ] } },
{ "type": "Feature", "properties": { "request_type": "Street Flooding Issues", "Latitude": 26.0178226, "Longitude": -80.1240809, "Address": "921 Buchanan St, Hollywood, FL 33019", "AdditionalData": "Select a Request Type=Street Flooding Issues", "StatusType": "Completed", "InitialBoundaryName": "Hollywood, FL - City Limits;District 1;Code Enforcement Zone 1", "date": "2023-11-16 15:43:18" }, "geometry": { "type": "Point", "coordinates": [ -80.1240809, 26.0178226 ] } },
{ "type": "Feature", "properties": { "request_type": "Street Flooding Issues", "Latitude": 26.0178761, "Longitude": -80.132829, "Address": "747 N 13th Ave, Hollywood, FL 33019", "AdditionalData": "Select a Request Type=Street Flooding Issues", "StatusType": "Completed", "InitialBoundaryName": "Hollywood, FL - City Limits;District 1;Code Enforcement Zone 1", "date": "2023-11-15 23:10:55" }, "geometry": { "type": "Point", "coordinates": [ -80.132829, 26.0178761 ] } },
{ "type": "Feature", "properties": { "request_type": "Street Flooding Issues", "Latitude": 26.0342238, "Longitude": -80.2021329, "Address": "5640 Farragut St, Hollywood, FL 33021", "AdditionalData": "Select a Request Type=Street Flooding Issues", "StatusType": "Completed", "InitialBoundaryName": "Hollywood, FL - City Limits;District 4;Code Enforcement Zone 6", "date": "2023-11-15 23:06:14" }, "geometry": { "type": "Point", "coordinates": [ -80.2021329, 26.0342238 ] } },
{ "type": "Feature", "properties": { "request_type": "Street Flooding Issues", "Latitude": 25.9971768, "Longitude": -80.1362507, "Address": "1435 Moffett St, Hollywood, FL 33020", "AdditionalData": "Select a Request Type=Street Flooding Issues", "StatusType": "Completed", "InitialBoundaryName": "Hollywood, FL - City Limits;District 1;Code Enforcement Zone 2", "date": "2023-11-15 22:51:20" }, "geometry": { "type": "Point", "coordinates": [ -80.1362507, 25.9971768 ] } },
{ "type": "Feature", "properties": { "request_type": "Street Flooding Issues", "Latitude": 26.0106157, "Longitude": -80.1177442, "Address": "101 S Ocean Dr, Hollywood, FL 33019", "AdditionalData": "Select a Request Type=Street Flooding Issues", "StatusType": "Completed", "InitialBoundaryName": "Hollywood, FL - City Limits;District 1;Code Enforcement Zone 14", "date": "2023-11-15 14:31:30" }, "geometry": { "type": "Point", "coordinates": [ -80.1177442, 26.0106157 ] } },
{ "type": "Feature", "properties": { "request_type": "Street Flooding Issues", "Latitude": 26.0211228, "Longitude": -80.174371, "Address": "3229 Garfield St, Hollywood, FL 33021", "AdditionalData": "Select a Request Type=Street Flooding Issues", "StatusType": "Duplicate", "InitialBoundaryName": "Hollywood, FL - City Limits;District 3;Code Enforcement Zone 7", "date": "2023-10-18 21:25:22" }, "geometry": { "type": "Point", "coordinates": [ -80.174371, 26.0211228 ] } },
{ "type": "Feature", "properties": { "request_type": "Street Flooding Issues", "Latitude": 26.0242188, "Longitude": -80.1364361, "Address": "1441-1443 N 14th Ave, Hollywood, FL 33020", "AdditionalData": "Select a Request Type=Street Flooding Issues", "StatusType": "Completed", "InitialBoundaryName": "Hollywood, FL - City Limits;District 1;Code Enforcement Zone 1", "date": "2023-10-16 16:24:11" }, "geometry": { "type": "Point", "coordinates": [ -80.1364361, 26.0242188 ] } },
{ "type": "Feature", "properties": { "request_type": "Street Flooding Issues", "Latitude": 26.0211275, "Longitude": -80.174363, "Address": "3229 Garfield St, Hollywood, FL 33021", "AdditionalData": "Select a Request Type=Street Flooding Issues", "StatusType": "Completed", "InitialBoundaryName": "Hollywood, FL - City Limits;District 3;Code Enforcement Zone 7", "date": "2023-10-11 11:05:20" }, "geometry": { "type": "Point", "coordinates": [ -80.174363, 26.0211275 ] } },
{ "type": "Feature", "properties": { "request_type": "Street Flooding Issues", "Latitude": 26.0152704, "Longitude": -80.1856691, "Address": "4116 Pierce St, Hollywood, FL 33021", "AdditionalData": "Select a Request Type=Street Flooding Issues", "StatusType": "Completed", "InitialBoundaryName": "Hollywood, FL - City Limits;District 3;Code Enforcement Zone 8", "date": "2023-10-02 20:45:48" }, "geometry": { "type": "Point", "coordinates": [ -80.1856691, 26.0152704 ] } },
{ "type": "Feature", "properties": { "request_type": "Street Flooding Issues", "Latitude": 26.018735, "Longitude": -80.1749992, "Address": "3251 Johnson St, Hollywood, FL 33021", "AdditionalData": "Select a Request Type=Street Flooding Issues", "StatusType": "Completed", "InitialBoundaryName": "Hollywood, FL - City Limits;District 3;Code Enforcement Zone 7", "date": "2023-09-28 9:03:34" }, "geometry": { "type": "Point", "coordinates": [ -80.1749992, 26.018735 ] } },
{ "type": "Feature", "properties": { "request_type": "Street Flooding Issues", "Latitude": 26.0219159, "Longitude": -80.1342067, "Address": "1125 N 13th Terrace, Hollywood, FL 33019", "AdditionalData": "Select a Request Type=Street Flooding Issues", "StatusType": "Completed", "InitialBoundaryName": "Hollywood, FL - City Limits;District 1;Code Enforcement Zone 1", "date": "2023-09-23 16:08:22" }, "geometry": { "type": "Point", "coordinates": [ -80.1342067, 26.0219159 ] } },
{ "type": "Feature", "properties": { "request_type": "Street Flooding Issues", "Latitude": 26.0119728, "Longitude": -80.1876428, "Address": "4400 Polk St, Hollywood, FL 33021", "AdditionalData": "Select a Request Type=Street Flooding Issues", "StatusType": "Completed", "InitialBoundaryName": "Hollywood, FL - City Limits;District 3;Code Enforcement Zone 8", "date": "2023-09-22 10:38:30" }, "geometry": { "type": "Point", "coordinates": [ -80.1876428, 26.0119728 ] } },
{ "type": "Feature", "properties": { "request_type": "Street Flooding Issues", "Latitude": 26.0162048, "Longitude": -80.1658612, "Address": "2905 Pierce St, Hollywood, FL 33020", "AdditionalData": "Select a Request Type=Street Flooding Issues", "StatusType": "Completed", "InitialBoundaryName": "Hollywood, FL - City Limits;District 3;Code Enforcement Zone 7", "date": "2023-09-19 17:45:32" }, "geometry": { "type": "Point", "coordinates": [ -80.1658612, 26.0162048 ] } },
{ "type": "Feature", "properties": { "request_type": "Street Flooding Issues", "Latitude": 26.0159574, "Longitude": -80.1659113, "Address": "2905 Pierce St, Hollywood, FL 33020", "AdditionalData": "Select a Request Type=Street Flooding Issues", "StatusType": "Completed", "InitialBoundaryName": "Hollywood, FL - City Limits;District 3;Code Enforcement Zone 7", "date": "2023-09-19 16:16:20" }, "geometry": { "type": "Point", "coordinates": [ -80.1659113, 26.0159574 ] } },
{ "type": "Feature", "properties": { "request_type": "Street Flooding Issues", "Latitude": 26.0271119, "Longitude": -80.1562683, "Address": "2423 Wilson St, Hollywood, FL 33020", "AdditionalData": "Select a Request Type=Street Flooding Issues", "StatusType": "Completed", "InitialBoundaryName": "Hollywood, FL - City Limits;District 3;Code Enforcement Zone 7", "date": "2023-09-18 10:41:13" }, "geometry": { "type": "Point", "coordinates": [ -80.1562683, 26.0271119 ] } },
{ "type": "Feature", "properties": { "request_type": "Street Flooding Issues", "Latitude": 26.0189959, "Longitude": -80.1311911, "Address": "1216 Johnson St, Hollywood, FL 33019", "AdditionalData": "Select a Request Type=Street Flooding Issues", "StatusType": "Completed", "InitialBoundaryName": "Hollywood, FL - City Limits;District 1;Code Enforcement Zone 1", "date": "2023-08-29 16:42:23" }, "geometry": { "type": "Point", "coordinates": [ -80.1311911, 26.0189959 ] } },
{ "type": "Feature", "properties": { "request_type": "Street Flooding Issues", "Latitude": 26.0323614, "Longitude": -80.1595464, "Address": "2318 N 26th Ave, Hollywood, FL 33020", "AdditionalData": "Select a Request Type=Street Flooding Issues", "StatusType": "Completed", "InitialBoundaryName": "Hollywood, FL - City Limits;District 3;Code Enforcement Zone 7", "date": "2023-08-26 6:07:32" }, "geometry": { "type": "Point", "coordinates": [ -80.1595464, 26.0323614 ] } },
{ "type": "Feature", "properties": { "request_type": "Street Flooding Issues", "Latitude": 26.003344, "Longitude": -80.1470394, "Address": "2001 Dewey St, Hollywood, FL 33020", "AdditionalData": "Select a Request Type=Street Flooding Issues", "StatusType": "Completed", "InitialBoundaryName": "Hollywood, FL - City Limits;District 2;Code Enforcement Zone 4", "date": "2023-08-26 2:06:28" }, "geometry": { "type": "Point", "coordinates": [ -80.1470394, 26.003344 ] } },
{ "type": "Feature", "properties": { "request_type": "Street Flooding Issues", "Latitude": 25.9990199, "Longitude": -80.1364688, "Address": "1439 Mayo St, Hollywood, FL 33020", "AdditionalData": "Select a Request Type=Street Flooding Issues", "StatusType": "Completed", "InitialBoundaryName": "Hollywood, FL - City Limits;District 1;Code Enforcement Zone 2", "date": "2023-08-21 6:54:41" }, "geometry": { "type": "Point", "coordinates": [ -80.1364688, 25.9990199 ] } },
{ "type": "Feature", "properties": { "request_type": "Street Flooding Issues", "Latitude": 26.0297298, "Longitude": -80.201846, "Address": "2201 N 57th Ave, Hollywood, FL 33021", "AdditionalData": "Select a Request Type=Street Flooding Issues", "StatusType": "Completed", "InitialBoundaryName": "Hollywood, FL - City Limits;District 4;Code Enforcement Zone 6", "date": "2023-08-10 20:59:43" }, "geometry": { "type": "Point", "coordinates": [ -80.201846, 26.0297298 ] } },
{ "type": "Feature", "properties": { "request_type": "Street Flooding Issues", "Latitude": 26.0344391, "Longitude": -80.2021587, "Address": "5641 Farragut St, Hollywood, FL 33021", "AdditionalData": "Select a Request Type=Street Flooding Issues", "StatusType": "Completed", "InitialBoundaryName": "Hollywood, FL - City Limits;District 4;Code Enforcement Zone 6", "date": "2023-08-08 19:42:55" }, "geometry": { "type": "Point", "coordinates": [ -80.2021587, 26.0344391 ] } },
{ "type": "Feature", "properties": { "request_type": "Street Flooding Issues", "Latitude": 26.0169067, "Longitude": -80.1659319, "Address": "2910 Lincoln St, Hollywood, FL 33020", "AdditionalData": "Select a Request Type=Street Flooding Issues", "StatusType": "Completed", "InitialBoundaryName": "Hollywood, FL - City Limits;District 3;Code Enforcement Zone 7", "date": "2023-07-31 15:58:48" }, "geometry": { "type": "Point", "coordinates": [ -80.1659319, 26.0169067 ] } },
{ "type": "Feature", "properties": { "request_type": "Street Flooding Issues", "Latitude": 26.0271956, "Longitude": -80.1648093, "Address": "2771 Taft St, Hollywood, FL 33020", "AdditionalData": "Select a Request Type=Street Flooding Issues", "StatusType": "Completed", "InitialBoundaryName": "Hollywood, FL - City Limits;District 3;Code Enforcement Zone 7", "date": "2023-07-28 15:17:33" }, "geometry": { "type": "Point", "coordinates": [ -80.1648093, 26.0271956 ] } },
{ "type": "Feature", "properties": { "request_type": "Street Flooding Issues", "Latitude": 26.0029314, "Longitude": -80.1846393, "Address": "4033 S 41st Ave, Hollywood, FL 33021", "AdditionalData": "Select a Request Type=Street Flooding Issues", "StatusType": "Completed", "InitialBoundaryName": "Hollywood, FL - City Limits;District 6;Code Enforcement Zone 9", "date": "2023-07-27 20:24:00" }, "geometry": { "type": "Point", "coordinates": [ -80.1846393, 26.0029314 ] } },
{ "type": "Feature", "properties": { "request_type": "Street Flooding Issues", "Latitude": 26.0130048, "Longitude": -80.1267576, "Address": "1029 Tyler St, Hollywood, FL 33019", "AdditionalData": "Select a Request Type=Street Flooding Issues", "StatusType": "Completed", "InitialBoundaryName": "Hollywood, FL - City Limits;District 1;Code Enforcement Zone 1", "date": "2023-07-27 20:08:59" }, "geometry": { "type": "Point", "coordinates": [ -80.1267576, 26.0130048 ] } },
{ "type": "Feature", "properties": { "request_type": "Street Flooding Issues", "Latitude": 26.0186744, "Longitude": -80.1289691, "Address": "1119 Lincoln St, Hollywood, FL 33019", "AdditionalData": "Select a Request Type=Street Flooding Issues", "StatusType": "Completed", "InitialBoundaryName": "Hollywood, FL - City Limits;District 1;Code Enforcement Zone 1", "date": "2023-07-27 19:04:33" }, "geometry": { "type": "Point", "coordinates": [ -80.1289691, 26.0186744 ] } },
{ "type": "Feature", "properties": { "request_type": "Street Flooding Issues", "Latitude": 26.0181415, "Longitude": -80.1861809, "Address": "4205 Johnson St, Hollywood, FL 33021", "AdditionalData": "Select a Request Type=Street Flooding Issues", "StatusType": "Completed", "InitialBoundaryName": "Hollywood, FL - City Limits;District 3;Code Enforcement Zone 8", "date": "2023-07-27 17:54:31" }, "geometry": { "type": "Point", "coordinates": [ -80.1861809, 26.0181415 ] } },
{ "type": "Feature", "properties": { "request_type": "Street Flooding Issues", "Latitude": 26.0252516, "Longitude": -80.2199954, "Address": "6565 Taft St #402, Hollywood, FL 33024", "AdditionalData": "Select a Request Type=Street Flooding Issues", "StatusType": "Completed", "InitialBoundaryName": "Hollywood, FL - City Limits;District 5;Code Enforcement Zone 12", "date": "2023-07-19 9:47:54" }, "geometry": { "type": "Point", "coordinates": [ -80.2199954, 26.0252516 ] } },
{ "type": "Feature", "properties": { "request_type": "Street Flooding Issues", "Latitude": 26.0117414, "Longitude": -80.1722668, "Address": "Tyler St, Hollywood, FL", "AdditionalData": "Select a Request Type=Street Flooding Issues", "StatusType": "Completed", "InitialBoundaryName": "Hollywood, FL - City Limits;District 3;Code Enforcement Zone 7", "date": "2023-07-17 17:46:00" }, "geometry": { "type": "Point", "coordinates": [ -80.1722668, 26.0117414 ] } },
{ "type": "Feature", "properties": { "request_type": "Street Flooding Issues", "Latitude": 26.0293678, "Longitude": -80.163827, "Address": "2722 Scott St, Hollywood, FL 33020", "AdditionalData": "Select a Request Type=Street Flooding Issues", "StatusType": "Completed", "InitialBoundaryName": "Hollywood, FL - City Limits;District 3;Code Enforcement Zone 7", "date": "2023-07-14 13:25:04" }, "geometry": { "type": "Point", "coordinates": [ -80.163827, 26.0293678 ] } },
{ "type": "Feature", "properties": { "request_type": "Street Flooding Issues", "Latitude": 26.0371076, "Longitude": -80.1692348, "Address": "3050 N 30th Ave, Hollywood, FL 33021", "AdditionalData": "Select a Request Type=Street Flooding Issues", "StatusType": "Completed", "InitialBoundaryName": "Hollywood, FL - City Limits;District 4;Code Enforcement Zone 5", "date": "2023-07-06 15:08:25" }, "geometry": { "type": "Point", "coordinates": [ -80.1692348, 26.0371076 ] } },
{ "type": "Feature", "properties": { "request_type": "Street Flooding Issues", "Latitude": 26.0190083, "Longitude": -80.1310384, "Address": "1212 Johnson St, Hollywood, FL 33019", "AdditionalData": "Select a Request Type=Street Flooding Issues", "StatusType": "Completed", "InitialBoundaryName": "Hollywood, FL - City Limits;District 1;Code Enforcement Zone 1", "date": "2023-06-28 16:28:08" }, "geometry": { "type": "Point", "coordinates": [ -80.1310384, 26.0190083 ] } },
{ "type": "Feature", "properties": { "request_type": "Street Flooding Issues", "Latitude": 26.0295508, "Longitude": -80.1638256, "Address": "2722 Scott St, Hollywood, FL 33020", "AdditionalData": "Select a Request Type=Street Flooding Issues", "StatusType": "Completed", "InitialBoundaryName": "Hollywood, FL - City Limits;District 3;Code Enforcement Zone 7", "date": "2023-06-07 10:49:04" }, "geometry": { "type": "Point", "coordinates": [ -80.1638256, 26.0295508 ] } },
{ "type": "Feature", "properties": { "request_type": "Street Flooding Issues", "Latitude": 26.0307577, "Longitude": -80.1352514, "Address": "2112-2114 N 14th Ave, Hollywood, FL 33020", "AdditionalData": "Select a Request Type=Street Flooding Issues", "StatusType": "Completed", "InitialBoundaryName": "Hollywood, FL - City Limits;District 1;Code Enforcement Zone 1", "date": "2023-06-06 15:15:22" }, "geometry": { "type": "Point", "coordinates": [ -80.1352514, 26.0307577 ] } },
{ "type": "Feature", "properties": { "request_type": "Street Flooding Issues", "Latitude": 26.0302392, "Longitude": -80.1361173, "Address": "2100 N 14th Ct, Hollywood, FL 33020", "AdditionalData": "Select a Request Type=Street Flooding Issues", "StatusType": "Completed", "InitialBoundaryName": "Hollywood, FL - City Limits;District 1;Code Enforcement Zone 1", "date": "2023-06-06 10:07:08" }, "geometry": { "type": "Point", "coordinates": [ -80.1361173, 26.0302392 ] } },
{ "type": "Feature", "properties": { "request_type": "Street Flooding Issues", "Latitude": 26.0119079, "Longitude": -80.130286, "Address": "68 N 12th Ave, Hollywood, FL 33019", "AdditionalData": "Select a Request Type=Street Flooding Issues", "StatusType": "Completed", "InitialBoundaryName": "Hollywood, FL - City Limits;District 1;Code Enforcement Zone 1", "date": "2023-05-25 15:11:53" }, "geometry": { "type": "Point", "coordinates": [ -80.130286, 26.0119079 ] } },
{ "type": "Feature", "properties": { "request_type": "Street Flooding Issues", "Latitude": 26.0225633, "Longitude": -80.1385624, "Address": "1544 Arthur St, Hollywood, FL 33020", "AdditionalData": "Select a Request Type=Street Flooding Issues", "StatusType": "Completed", "InitialBoundaryName": "Hollywood, FL - City Limits;District 1;Code Enforcement Zone 1", "date": "2023-05-24 9:27:49" }, "geometry": { "type": "Point", "coordinates": [ -80.1385624, 26.0225633 ] } },
{ "type": "Feature", "properties": { "request_type": "Street Flooding Issues", "Latitude": 26.031249, "Longitude": -80.135242, "Address": "2124-2126 N 14th Ave, Hollywood, FL 33020", "AdditionalData": "Select a Request Type=Street Flooding Issues", "StatusType": "Completed", "InitialBoundaryName": "Hollywood, FL - City Limits;District 1;Code Enforcement Zone 1", "date": "2023-05-23 16:04:32" }, "geometry": { "type": "Point", "coordinates": [ -80.135242, 26.031249 ] } },
{ "type": "Feature", "properties": { "request_type": "Street Flooding Issues", "Latitude": 26.0342453, "Longitude": -80.2019604, "Address": "5636 Farragut St, Hollywood, FL 33021", "AdditionalData": "Select a Request Type=Street Flooding Issues", "StatusType": "Completed", "InitialBoundaryName": "Hollywood, FL - City Limits;District 4;Code Enforcement Zone 6", "date": "2023-05-17 12:53:23" }, "geometry": { "type": "Point", "coordinates": [ -80.2019604, 26.0342453 ] } },
{ "type": "Feature", "properties": { "request_type": "Street Flooding Issues", "Latitude": 26.0244975, "Longitude": -80.1366531, "Address": "1427 N 15th Ave, Hollywood, FL 33020", "AdditionalData": "Select a Request Type=Street Flooding Issues", "StatusType": "Completed", "InitialBoundaryName": "Hollywood, FL - City Limits;District 1;Code Enforcement Zone 1", "date": "2023-05-05 13:44:41" }, "geometry": { "type": "Point", "coordinates": [ -80.1366531, 26.0244975 ] } },
{ "type": "Feature", "properties": { "request_type": "Street Flooding Issues", "Latitude": 26.0439371, "Longitude": -80.2013618, "Address": "5641 Allen St, Hollywood, FL 33021", "AdditionalData": "Select a Request Type=Street Flooding Issues", "StatusType": "Completed", "InitialBoundaryName": "Hollywood, FL - City Limits;District 4;Code Enforcement Zone 6", "date": "2023-04-30 22:40:04" }, "geometry": { "type": "Point", "coordinates": [ -80.2013618, 26.0439371 ] } },
{ "type": "Feature", "properties": { "request_type": "Street Flooding Issues", "Latitude": 26.0242088, "Longitude": -80.1369091, "Address": "1413 N 15th Ave, Hollywood, FL 33020", "AdditionalData": "Select a Request Type=Street Flooding Issues", "StatusType": "Completed", "InitialBoundaryName": "Hollywood, FL - City Limits;District 1;Code Enforcement Zone 1", "date": "2023-04-27 17:59:26" }, "geometry": { "type": "Point", "coordinates": [ -80.1369091, 26.0242088 ] } },
{ "type": "Feature", "properties": { "request_type": "Street Flooding Issues", "Latitude": 26.0035776, "Longitude": -80.1844333, "Address": "4024 Adams St, Hollywood, FL 33021", "AdditionalData": "Select a Request Type=Street Flooding Issues", "StatusType": "Completed", "InitialBoundaryName": "Hollywood, FL - City Limits;District 6;Code Enforcement Zone 9", "date": "2023-04-27 9:32:11" }, "geometry": { "type": "Point", "coordinates": [ -80.1844333, 26.0035776 ] } },
{ "type": "Feature", "properties": { "request_type": "Street Flooding Issues", "Latitude": 26.0189645, "Longitude": -80.1624384, "Address": "2727 Johnson St, Hollywood, FL 33020", "AdditionalData": "Select a Request Type=Street Flooding Issues", "StatusType": "Completed", "InitialBoundaryName": "Hollywood, FL - City Limits;District 3;Code Enforcement Zone 7", "date": "2023-04-26 16:59:29" }, "geometry": { "type": "Point", "coordinates": [ -80.1624384, 26.0189645 ] } },
{ "type": "Feature", "properties": { "request_type": "Street Flooding Issues", "Latitude": 26.0220229, "Longitude": -80.1619076, "Address": "2714 Arthur St, Hollywood, FL 33020", "AdditionalData": "Select a Request Type=Street Flooding Issues", "StatusType": "Completed", "InitialBoundaryName": "Hollywood, FL - City Limits;District 3;Code Enforcement Zone 7", "date": "2023-04-23 13:38:44" }, "geometry": { "type": "Point", "coordinates": [ -80.1619076, 26.0220229 ] } },
{ "type": "Feature", "properties": { "request_type": "Street Flooding Issues", "Latitude": 25.9990127, "Longitude": -80.1350295, "Address": "1407 Mayo St, Hollywood, FL 33020", "AdditionalData": "Select a Request Type=Street Flooding Issues", "StatusType": "Completed", "InitialBoundaryName": "Hollywood, FL - City Limits;District 1;Code Enforcement Zone 2", "date": "2023-04-22 6:58:57" }, "geometry": { "type": "Point", "coordinates": [ -80.1350295, 25.9990127 ] } },
{ "type": "Feature", "properties": { "request_type": "Street Flooding Issues", "Latitude": 26.029552, "Longitude": -80.1638129, "Address": "2722 Scott St, Hollywood, FL 33020", "AdditionalData": "Select a Request Type=Street Flooding Issues", "StatusType": "Completed", "InitialBoundaryName": "Hollywood, FL - City Limits;District 3;Code Enforcement Zone 7", "date": "2023-04-21 14:50:24" }, "geometry": { "type": "Point", "coordinates": [ -80.1638129, 26.029552 ] } },
{ "type": "Feature", "properties": { "request_type": "Street Flooding Issues", "Latitude": 26.0042611, "Longitude": -80.1315836, "Address": "1240 Washington St, Hollywood, FL 33019", "AdditionalData": "Select a Request Type=Street Flooding Issues", "StatusType": "Completed", "InitialBoundaryName": "Hollywood, FL - City Limits;District 1;Code Enforcement Zone 2", "date": "2023-04-20 21:20:59" }, "geometry": { "type": "Point", "coordinates": [ -80.1315836, 26.0042611 ] } },
{ "type": "Feature", "properties": { "request_type": "Street Flooding Issues", "Latitude": 26.0385763, "Longitude": -80.1535813, "Address": "2259 Douglas St, Hollywood, FL 33020", "AdditionalData": "Select a Request Type=Street Flooding Issues", "StatusType": "Completed", "InitialBoundaryName": "Hollywood, FL - City Limits;District 2;Code Enforcement Zone 3", "date": "2023-04-17 21:26:15" }, "geometry": { "type": "Point", "coordinates": [ -80.1535813, 26.0385763 ] } },
{ "type": "Feature", "properties": { "request_type": "Street Flooding Issues", "Latitude": 26.0307448, "Longitude": -80.1352475, "Address": "2112-2114 N 14th Ave, Hollywood, FL 33020", "AdditionalData": "Select a Request Type=Street Flooding Issues", "StatusType": "Completed", "InitialBoundaryName": "Hollywood, FL - City Limits;District 1;Code Enforcement Zone 1", "date": "2023-04-17 11:44:14" }, "geometry": { "type": "Point", "coordinates": [ -80.1352475, 26.0307448 ] } },
{ "type": "Feature", "properties": { "request_type": "Street Flooding Issues", "Latitude": 26.0434835, "Longitude": -80.2009313, "Address": "5600 Allen St, Hollywood, FL 33021", "AdditionalData": "Select a Request Type=Street Flooding Issues", "StatusType": "Completed", "InitialBoundaryName": "Hollywood, FL - City Limits;District 4;Code Enforcement Zone 6", "date": "2023-04-17 10:44:22" }, "geometry": { "type": "Point", "coordinates": [ -80.2009313, 26.0434835 ] } },
{ "type": "Feature", "properties": { "request_type": "Street Flooding Issues", "Latitude": 26.0376098, "Longitude": -80.221083, "Address": "3071 N 66th Ave, Hollywood, FL 33024", "AdditionalData": "Select a Request Type=Street Flooding Issues", "StatusType": "Completed", "InitialBoundaryName": "Hollywood, FL - City Limits;District 4;Code Enforcement Zone 6", "date": "2023-04-16 19:39:40" }, "geometry": { "type": "Point", "coordinates": [ -80.221083, 26.0376098 ] } },
{ "type": "Feature", "properties": { "request_type": "Street Flooding Issues", "Latitude": 26.0295579, "Longitude": -80.1638008, "Address": "2722 Scott St, Hollywood, FL 33020", "AdditionalData": "Select a Request Type=Street Flooding Issues", "StatusType": "Completed", "InitialBoundaryName": "Hollywood, FL - City Limits;District 3;Code Enforcement Zone 7", "date": "2023-04-15 18:34:04" }, "geometry": { "type": "Point", "coordinates": [ -80.1638008, 26.0295579 ] } },
{ "type": "Feature", "properties": { "request_type": "Street Flooding Issues", "Latitude": 26.0263971, "Longitude": -80.171551, "Address": "3161 Taft St, Hollywood, FL 33021", "AdditionalData": "Select a Request Type=Street Flooding Issues", "StatusType": "Completed", "InitialBoundaryName": "Hollywood, FL - City Limits;District 3;Code Enforcement Zone 7", "date": "2023-04-14 7:16:04" }, "geometry": { "type": "Point", "coordinates": [ -80.171551, 26.0263971 ] } },
{ "type": "Feature", "properties": { "request_type": "Street Flooding Issues", "Latitude": 26.0174313, "Longitude": -80.2175396, "Address": "6440 Johnson St, Hollywood, FL 33024", "AdditionalData": "Select a Request Type=Street Flooding Issues", "StatusType": "Completed", "InitialBoundaryName": "Hollywood, FL - City Limits;District 5;Code Enforcement Zone 11", "date": "2023-04-13 16:34:14" }, "geometry": { "type": "Point", "coordinates": [ -80.2175396, 26.0174313 ] } },
{ "type": "Feature", "properties": { "request_type": "Street Flooding Issues", "Latitude": 25.9989199, "Longitude": -80.1383003, "Address": "1539 Mayo St, Hollywood, FL 33020", "AdditionalData": "Select a Request Type=Street Flooding Issues", "StatusType": "Completed", "InitialBoundaryName": "Hollywood, FL - City Limits;District 1;Code Enforcement Zone 2", "date": "2023-04-13 16:23:58" }, "geometry": { "type": "Point", "coordinates": [ -80.1383003, 25.9989199 ] } },
{ "type": "Feature", "properties": { "request_type": "Street Flooding Issues", "Latitude": 26.0034241, "Longitude": -80.1663975, "Address": "2941 Washington St, Hollywood, FL 33020", "AdditionalData": "Select a Request Type=Street Flooding Issues", "StatusType": "Completed", "InitialBoundaryName": "Hollywood, FL - City Limits;District 2;Code Enforcement Zone 4", "date": "2023-04-13 16:11:49" }, "geometry": { "type": "Point", "coordinates": [ -80.1663975, 26.0034241 ] } },
{ "type": "Feature", "properties": { "request_type": "Street Flooding Issues", "Latitude": 25.9981461, "Longitude": -80.1350297, "Address": "1407 Fletcher St, Hollywood, FL 33020", "AdditionalData": "Select a Request Type=Street Flooding Issues", "StatusType": "Completed", "InitialBoundaryName": "Hollywood, FL - City Limits;District 1;Code Enforcement Zone 2", "date": "2023-04-13 16:09:53" }, "geometry": { "type": "Point", "coordinates": [ -80.1350297, 25.9981461 ] } },
{ "type": "Feature", "properties": { "request_type": "Street Flooding Issues", "Latitude": 26.0298886, "Longitude": -80.1754965, "Address": "2126 N Park Rd, Hollywood, FL 33021", "AdditionalData": "Select a Request Type=Street Flooding Issues", "StatusType": "Completed", "InitialBoundaryName": "Hollywood, FL - City Limits;District 3;Code Enforcement Zone 8", "date": "2023-04-13 15:41:11" }, "geometry": { "type": "Point", "coordinates": [ -80.1754965, 26.0298886 ] } },
{ "type": "Feature", "properties": { "request_type": "Street Flooding Issues", "Latitude": 26.0307427, "Longitude": -80.1340808, "Address": "2145 N 14th Ave, Hollywood, FL 33020", "AdditionalData": "Select a Request Type=Street Flooding Issues", "StatusType": "Completed", "InitialBoundaryName": "Hollywood, FL - City Limits;District 1;Code Enforcement Zone 1", "date": "2023-04-13 11:41:51" }, "geometry": { "type": "Point", "coordinates": [ -80.1340808, 26.0307427 ] } },
{ "type": "Feature", "properties": { "request_type": "Street Flooding Issues", "Latitude": 26.0171792, "Longitude": -80.1634884, "Address": "N 28th Ave & Lincoln St, Hollywood, FL 33020", "AdditionalData": "Select a Request Type=Street Flooding Issues", "StatusType": "Completed", "InitialBoundaryName": "Hollywood, FL - City Limits;District 3;Code Enforcement Zone 7", "date": "2023-04-13 8:16:58" }, "geometry": { "type": "Point", "coordinates": [ -80.1634884, 26.0171792 ] } },
{ "type": "Feature", "properties": { "request_type": "Street Flooding Issues", "Latitude": 25.999562, "Longitude": -80.1350362, "Address": "1406 Wiley St, Hollywood, FL 33020", "AdditionalData": "Select a Request Type=Street Flooding Issues", "StatusType": "Completed", "InitialBoundaryName": "Hollywood, FL - City Limits;District 1;Code Enforcement Zone 2", "date": "2023-04-13 7:50:26" }, "geometry": { "type": "Point", "coordinates": [ -80.1350362, 25.999562 ] } },
{ "type": "Feature", "properties": { "request_type": "Street Flooding Issues", "Latitude": 26.0347493, "Longitude": -80.1627217, "Address": "2727 Bruce Terrace, Hollywood, FL 33020", "AdditionalData": "Select a Request Type=Street Flooding Issues", "StatusType": "Completed", "InitialBoundaryName": "Hollywood, FL - City Limits;District 4;Code Enforcement Zone 5", "date": "2023-04-12 23:09:02" },